{
  "vertex": {
    "IDFM:22111": {
      "stop_name": "Porte Dauphine",
      "stop_lat": "48.871397",
      "stop_lon": "2.277633",
      "zone_id": "1",
      "location_type": 0,
      "parent_station": "IDFM:474152",
      "line": "IDFM:C01372",
      "wheelchair": 2
    },
    "IDFM:22109": {
      "stop_name": "Victor Hugo",
      "stop_lat": "48.869855",
      "stop_lon": "2.285902",
      "zone_id": "1",
      "location_type": 0,
      "parent_station": "IDFM:71315",
      "line": "IDFM:C01372",
      "wheelchair": 2
    },
    "IDFM:463043": {
      "stop_name": "Charles de Gaulle - Etoile",
      "stop_lat": "48.874946",
      "stop_lon": "2.295928",
      "zone_id": "1",
      "location_type": 0,
      "parent_station": "IDFM:71347",
      "line": "IDFM:C01372",
      "wheelchair": 2
    },
    "IDFM:22108": {
      "stop_name": "Ternes",
      "stop_lat": "48.878201",
      "stop_lon": "2.298114",
      "zone_id": "1",
      "location_type": 0,
      "parent_station": "IDFM:71367",
      "line": "IDFM:C01372",
      "wheelchair": 2
    },
    "IDFM:22121": {
      "stop_name": "Courcelles",
      "stop_lat": "48.879265",
      "stop_lon": "2.303294",
      "zone_id": "1",
      "location_type": 0,
      "parent_station": "IDFM:71376",
      "line": "IDFM:C01372",
      "wheelchair": 2
    },
    "IDFM:463240": {
      "stop_name": "Monceau",
      "stop_lat": "48.880569",
      "stop_lon": "2.309413",
      "zone_id": "1",
      "location_type": 0,
      "parent_station": "IDFM:73671",
      "line": "IDFM:C01372",
      "wheelchair": 2
    },
    "IDFM:462988": {
      "stop_name": "Villiers",
      "stop_lat": "48.881212",
      "stop_lon": "2.315761",
      "zone_id": "1",
      "location_type": 0,
      "parent_station": "IDFM:71403",
      "line": "IDFM:C01372",
      "wheelchair": 2
    },
    "IDFM:22110": {
      "stop_name": "Rome",
      "stop_lat": "48.882256",
      "stop_lon": "2.321404",
      "zone_id": "1",
      "location_type": 0,
      "parent_station": "IDFM:71408",
      "line": "IDFM:C01372",
      "wheelchair": 2
    },
    "IDFM:22115": {
      "stop_name": "Place de Clichy",
      "stop_lat": "48.883669",
      "stop_lon": "2.327958",
      "zone_id": "1",
      "location_type": 0,
      "parent_station": "IDFM:71435",
      "line": "IDFM:C01372",
      "wheelchair": 2
    },
    "IDFM:22125": {
      "stop_name": "Blanche",
      "stop_lat": "48.883766",
      "stop_lon": "2.332484",
      "zone_id": "1",
      "location_type": 0,
      "parent_station": "IDFM:71420",
      "line": "IDFM:C01372",
      "wheelchair": 2
    },
    "IDFM:463088": {
      "stop_name": "Pigalle",
      "stop_lat": "48.882197",
      "stop_lon": "2.338218",
      "zone_id": "1",
      "location_type": 0,
      "parent_station": "IDFM:71409",
      "line": "IDFM:C01372",
      "wheelchair": 2
    },
    "IDFM:463120": {
      "stop_name": "Anvers",
      "stop_lat": "48.882869",
      "stop_lon": "2.344155",
      "zone_id": "1",
      "location_type": 0,
      "parent_station": "IDFM:71419",
      "line": "IDFM:C01372",
      "wheelchair": 2
    },
    "IDFM:22127": {
      "stop_name": "Barbès - Rochechouart",
      "stop_lat": "48.883776",
      "stop_lon": "2.350607",
      "zone_id": "1",
      "location_type": 0,
      "parent_station": "IDFM:71426",
      "line": "IDFM:C01372",
      "wheelchair": 2
    },
    "IDFM:22119": {
      "stop_name": "La Chapelle",
      "stop_lat": "48.884386",
      "stop_lon": "2.360404",
      "zone_id": "1",
      "location_type": 0,
      "parent_station": "IDFM:71434",
      "line": "IDFM:C01372",
      "wheelchair": 2
    },
    "IDFM:22107": {
      "stop_name": "Stalingrad",
      "stop_lat": "48.884244",
      "stop_lon": "2.365751",
      "zone_id": "1",
      "location_type": 0,
      "parent_station": "IDFM:71961",
      "line": "IDFM:C01372",
      "wheelchair": 2
    },
    "IDFM:462981": {
      "stop_name": "Jaurès",
      "stop_lat": "48.881596",
      "stop_lon": "2.370154",
      "zone_id": "1",
      "location_type": 0,
      "parent_station": "IDFM:71940",
      "line": "IDFM:C01372",
      "wheelchair": 2
    },
    "IDFM:462984": {
      "stop_name": "Colonel Fabien",
      "stop_lat": "48.877650",
      "stop_lon": "2.370468",
      "zone_id": "1",
      "location_type": 0,
      "parent_station": "IDFM:71893",
      "line": "IDFM:C01372",
      "wheelchair": 2
    },
    "IDFM:463111": {
      "stop_name": "Belleville",
      "stop_lat": "48.872250",
      "stop_lon": "2.376641",
      "zone_id": "1",
      "location_type": 0,
      "parent_station": "IDFM:71853",
      "line": "IDFM:C01372",
      "wheelchair": 2
    },
    "IDFM:462983": {
      "stop_name": "Couronnes",
      "stop_lat": "48.869193",
      "stop_lon": "2.380289",
      "zone_id": "1",
      "location_type": 0,
      "parent_station": "IDFM:71834",
      "line": "IDFM:C01372",
      "wheelchair": 2
    },
    "IDFM:463243": {
      "stop_name": "Ménilmontant",
      "stop_lat": "48.866390",
      "stop_lon": "2.383430",
      "zone_id": "1",
      "location_type": 0,
      "parent_station": "IDFM:71815",
      "line": "IDFM:C01372",
      "wheelchair": 2
    },
    "IDFM:463285": {
      "stop_name": "Père Lachaise",
      "stop_lat": "48.862450",
      "stop_lon": "2.387580",
      "zone_id": "1",
      "location_type": 0,
      "parent_station": "IDFM:71787",
      "line": "IDFM:C01372",
      "wheelchair": 2
    },
    "IDFM:463230": {
      "stop_name": "Philippe Auguste",
      "stop_lat": "48.858089",
      "stop_lon": "2.390498",
      "zone_id": "1",
      "location_type": 0,
      "parent_station": "IDFM:71751",
      "line": "IDFM:C01372",
      "wheelchair": 2
    },
    "IDFM:22122": {
      "stop_name": "Alexandre Dumas",
      "stop_lat": "48.856199",
      "stop_lon": "2.394591",
      "zone_id": "1",
      "location_type": 0,
      "parent_station": "IDFM:71728",
      "line": "IDFM:C01372",
      "wheelchair": 2
    },
    "IDFM:463125": {
      "stop_name": "Avron",
      "stop_lat": "48.851616",
      "stop_lon": "2.398067",
      "zone_id": "1",
      "location_type": 0,
      "parent_station": "IDFM:71697",
      "line": "IDFM:C01372",
      "wheelchair": 2
    },
    "IDFM:463067": {
      "stop_name": "Nation",
      "stop_lat": "48.848453",
      "stop_lon": "2.395926",
      "zone_id": "1",
      "location_type": 0,
      "parent_station": "IDFM:71673",
      "line": "IDFM:C01372",
      "wheelchair": 2
    },
    "IDFM:22072": {
      "stop_name": "Nation",
      "stop_lat": "48.848453",
      "stop_lon": "2.395799",
      "zone_id": "1",
      "location_type": 0,
      "parent_station": "IDFM:71673",
      "line": "IDFM:C01372",
      "wheelchair": 2
    },
    "IDFM:22124": {
      "stop_name": "Avron",
      "stop_lat": "48.851649",
      "stop_lon": "2.398188",
      "zone_id": "1",
      "location_type": 0,
      "parent_station": "IDFM:71697",
      "line": "IDFM:C01372",
      "wheelchair": 2
    },
    "IDFM:463117": {
      "stop_name": "Alexandre Dumas",
      "stop_lat": "48.856245",
      "stop_lon": "2.394713",
      "zone_id": "1",
      "location_type": 0,
      "parent_station": "IDFM:71728",
      "line": "IDFM:C01372",
      "wheelchair": 2
    },
    "IDFM:22113": {
      "stop_name": "Philippe Auguste",
      "stop_lat": "48.858175",
      "stop_lon": "2.390548",
      "zone_id": "1",
      "location_type": 0,
      "parent_station": "IDFM:71751",
      "line": "IDFM:C01372",
      "wheelchair": 2
    },
    "IDFM:22112": {
      "stop_name": "Père Lachaise",
      "stop_lat": "48.862486",
      "stop_lon": "2.387689",
      "zone_id": "1",
      "location_type": 0,
      "parent_station": "IDFM:71787",
      "line": "IDFM:C01372",
      "wheelchair": 2
    },
    "IDFM:22116": {
      "stop_name": "Ménilmontant",
      "stop_lat": "48.866440",
      "stop_lon": "2.383540",
      "zone_id": "1",
      "location_type": 0,
      "parent_station": "IDFM:71815",
      "line": "IDFM:C01372",
      "wheelchair": 2
    },
    "IDFM:22126": {
      "stop_name": "Couronnes",
      "stop_lat": "48.869321",
      "stop_lon": "2.380534",
      "zone_id": "1",
      "location_type": 0,
      "parent_station": "IDFM:71834",
      "line": "IDFM:C01372",
      "wheelchair": 2
    },
    "IDFM:22128": {
      "stop_name": "Belleville",
      "stop_lat": "48.872314",
      "stop_lon": "2.376831",
      "zone_id": "1",
      "location_type": 0,
      "parent_station": "IDFM:71853",
      "line": "IDFM:C01372",
      "wheelchair": 2
    },
    "IDFM:22120": {
      "stop_name": "Colonel Fabien",
      "stop_lat": "48.877695",
      "stop_lon": "2.370576",
      "zone_id": "1",
      "location_type": 0,
      "parent_station": "IDFM:71893",
      "line": "IDFM:C01372",
      "wheelchair": 2
    },
    "IDFM:22118": {
      "stop_name": "Jaurès",
      "stop_lat": "48.881597",
      "stop_lon": "2.370270",
      "zone_id": "1",
      "location_type": 0,
      "parent_station": "IDFM:71940",
      "line": "IDFM:C01372",
      "wheelchair": 2
    },
    "IDFM:463009": {
      "stop_name": "Stalingrad",
      "stop_lat": "48.884321",
      "stop_lon": "2.365774",
      "zone_id": "1",
      "location_type": 0,
      "parent_station": "IDFM:71961",
      "line": "IDFM:C01372",
      "wheelchair": 2
    },
    "IDFM:462982": {
      "stop_name": "La Chapelle",
      "stop_lat": "48.884476",
      "stop_lon": "2.360430",
      "zone_id": "1",
      "location_type": 0,
      "parent_station": "IDFM:71434",
      "line": "IDFM:C01372",
      "wheelchair": 2
    },
    "IDFM:463094": {
      "stop_name": "Barbès - Rochechouart",
      "stop_lat": "48.883852",
      "stop_lon": "2.350573",
      "zone_id": "1",
      "location_type": 0,
      "parent_station": "IDFM:71426",
      "line": "IDFM:C01372",
      "wheelchair": 2
    },
    "IDFM:22123": {
      "stop_name": "Anvers",
      "stop_lat": "48.882869",
      "stop_lon": "2.344155",
      "zone_id": "1",
      "location_type": 0,
      "parent_station": "IDFM:71419",
      "line": "IDFM:C01372",
      "wheelchair": 2
    },
    "IDFM:22114": {
      "stop_name": "Pigalle",
      "stop_lat": "48.882270",
      "stop_lon": "2.338258",
      "zone_id": "1",
      "location_type": 0,
      "parent_station": "IDFM:71409",
      "line": "IDFM:C01372",
      "wheelchair": 2
    },
    "IDFM:463113": {
      "stop_name": "Blanche",
      "stop_lat": "48.883766",
      "stop_lon": "2.332484",
      "zone_id": "1",
      "location_type": 0,
      "parent_station": "IDFM:71420",
      "line": "IDFM:C01372",
      "wheelchair": 2
    },
    "IDFM:463252": {
      "stop_name": "Place de Clichy",
      "stop_lat": "48.883745",
      "stop_lon": "2.327899",
      "zone_id": "1",
      "location_type": 0,
      "parent_station": "IDFM:71435",
      "line": "IDFM:C01372",
      "wheelchair": 2
    },
    "IDFM:463296": {
      "stop_name": "Rome",
      "stop_lat": "48.882346",
      "stop_lon": "2.321359",
      "zone_id": "1",
      "location_type": 0,
      "parent_station": "IDFM:71408",
      "line": "IDFM:C01372",
      "wheelchair": 2
    },
    "IDFM:22106": {
      "stop_name": "Villiers",
      "stop_lat": "48.881306",
      "stop_lon": "2.315717",
      "zone_id": "1",
      "location_type": 0,
      "parent_station": "IDFM:71403",
      "line": "IDFM:C01372",
      "wheelchair": 2
    },
    "IDFM:22117": {
      "stop_name": "Monceau",
      "stop_lat": "48.880569",
      "stop_lon": "2.309413",
      "zone_id": "1",
      "location_type": 0,
      "parent_station": "IDFM:73671",
      "line": "IDFM:C01372",
      "wheelchair": 2
    },
    "IDFM:463154": {
      "stop_name": "Courcelles",
      "stop_lat": "48.879265",
      "stop_lon": "2.303294",
      "zone_id": "1",
      "location_type": 0,
      "parent_station": "IDFM:71376",
      "line": "IDFM:C01372",
      "wheelchair": 2
    },
    "IDFM:463266": {
      "stop_name": "Ternes",
      "stop_lat": "48.878228",
      "stop_lon": "2.298113",
      "zone_id": "1",
      "location_type": 0,
      "parent_station": "IDFM:71367",
      "line": "IDFM:C01372",
      "wheelchair": 2
    },
    "IDFM:22094": {
      "stop_name": "Charles de Gaulle - Etoile",
      "stop_lat": "48.874995",
      "stop_lon": "2.295812",
      "zone_id": "1",
      "location_type": 0,
      "parent_station": "IDFM:71347",
      "line": "IDFM:C01372",
      "wheelchair": 2
    },
    "IDFM:463322": {
      "stop_name": "Victor Hugo",
      "stop_lat": "48.869926",
      "stop_lon": "2.285829",
      "zone_id": "1",
      "location_type": 0,
      "parent_station": "IDFM:71315",
      "line": "IDFM:C01372",
      "wheelchair": 2
    },
    "IDFM:463256": {
      "stop_name": "Porte Dauphine",
      "stop_lat": "48.871735",
      "stop_lon": "2.277809",
      "zone_id": "1",
      "location_type": 0,
      "parent_station": "IDFM:474152",
      "line": "IDFM:C01372",
      "wheelchair": 2
    },
    "IDFM:22095": {
      "stop_name": "Charles de Gaulle - Etoile",
      "stop_lat": "48.873839",
      "stop_lon": "2.294996",
      "zone_id": "1",
      "location_type": 0,
      "parent_station": "IDFM:71347",
      "line": "IDFM:C01376",
      "wheelchair": 2
    },
    "IDFM:22170": {
      "stop_name": "Kléber",
      "stop_lat": "48.871489",
      "stop_lon": "2.293146",
      "zone_id": "1",
      "location_type": 0,
      "parent_station": "IDFM:73656",
      "line": "IDFM:C01376",
      "wheelchair": 2
    },
    "IDFM:22180": {
      "stop_name": "Boissière",
      "stop_lat": "48.866848",
      "stop_lon": "2.290033",
      "zone_id": "1",
      "location_type": 0,
      "parent_station": "IDFM:71301",
      "line": "IDFM:C01376",
      "wheelchair": 2
    },
    "IDFM:463268": {
      "stop_name": "Trocadéro",
      "stop_lat": "48.863488",
      "stop_lon": "2.287493",
      "zone_id": "1",
      "location_type": 0,
      "parent_station": "IDFM:71285",
      "line": "IDFM:C01376",
      "wheelchair": 2
    },
    "IDFM:463101": {
      "stop_name": "Passy",
      "stop_lat": "48.857532",
      "stop_lon": "2.285580",
      "zone_id": "1",
      "location_type": 0,
      "parent_station": "IDFM:71237",
      "line": "IDFM:C01376",
      "wheelchair": 2
    },
    "IDFM:22179": {
      "stop_name": "Bir-Hakeim",
      "stop_lat": "48.853884",
      "stop_lon": "2.289296",
      "zone_id": "1",
      "location_type": 0,
      "parent_station": "IDFM:473829",
      "line": "IDFM:C01376",
      "wheelchair": 2
    },
    "IDFM:463099": {
      "stop_name": "Dupleix",
      "stop_lat": "48.850384",
      "stop_lon": "2.293637",
      "zone_id": "1",
      "location_type": 0,
      "parent_station": "IDFM:71197",
      "line": "IDFM:C01376",
      "wheelchair": 2
    },
    "IDFM:22162": {
      "stop_name": "La Motte-Picquet - Grenelle",
      "stop_lat": "48.848698",
      "stop_lon": "2.298906",
      "zone_id": "1",
      "location_type": 0,
      "parent_station": "IDFM:71199",
      "line": "IDFM:C01376",
      "wheelchair": 2
    },
    "IDFM:463140": {
      "stop_name": "Cambronne",
      "stop_lat": "48.847493",
      "stop_lon": "2.302899",
      "zone_id": "1",
      "location_type": 0,
      "parent_station": "IDFM:71167",
      "line": "IDFM:C01376",
      "wheelchair": 2
    },
    "IDFM:22163": {
      "stop_name": "Sèvres-Lecourbe",
      "stop_lat": "48.845584",
      "stop_lon": "2.309468",
      "zone_id": "1",
      "location_type": 0,
      "parent_station": "IDFM:71144",
      "line": "IDFM:C01376",
      "wheelchair": 2
    },
    "IDFM:22166": {
      "stop_name": "Pasteur",
      "stop_lat": "48.842483",
      "stop_lon": "2.312793",
      "zone_id": "1",
      "location_type": 0,
      "parent_station": "IDFM:71125",
      "line": "IDFM:C01376",
      "wheelchair": 2
    },
    "IDFM:22156": {
      "stop_name": "Montparnasse Bienvenue",
      "stop_lat": "48.842054",
      "stop_lon": "2.321273",
      "zone_id": "1",
      "location_type": 0,
      "parent_station": "IDFM:71139",
      "line": "IDFM:C01376",
      "wheelchair": 2
    },
    "IDFM:463100": {
      "stop_name": "Edgar Quinet",
      "stop_lat": "48.840904",
      "stop_lon": "2.325287",
      "zone_id": "1",
      "location_type": 0,
      "parent_station": "IDFM:71108",
      "line": "IDFM:C01376",
      "wheelchair": 2
    },
    "IDFM:463292": {
      "stop_name": "Raspail",
      "stop_lat": "48.839066",
      "stop_lon": "2.330414",
      "zone_id": "1",
      "location_type": 0,
      "parent_station": "IDFM:71088",
      "line": "IDFM:C01376",
      "wheelchair": 2
    },
    "IDFM:463103": {
      "stop_name": "Denfert-Rochereau",
      "stop_lat": "48.834250",
      "stop_lon": "2.332804",
      "zone_id": "1",
      "location_type": 0,
      "parent_station": "IDFM:71056",
      "line": "IDFM:C01376",
      "wheelchair": 2
    },
    "IDFM:463305": {
      "stop_name": "Saint-Jacques",
      "stop_lat": "48.832857",
      "stop_lon": "2.337097",
      "zone_id": "1",
      "location_type": 0,
      "parent_station": "IDFM:71041",
      "line": "IDFM:C01376",
      "wheelchair": 2
    },
    "IDFM:463186": {
      "stop_name": "Glacière",
      "stop_lat": "48.831116",
      "stop_lon": "2.343438",
      "zone_id": "1",
      "location_type": 0,
      "parent_station": "IDFM:71026",
      "line": "IDFM:C01376",
      "wheelchair": 2
    },
    "IDFM:463105": {
      "stop_name": "Corvisart",
      "stop_lat": "48.829860",
      "stop_lon": "2.350611",
      "zone_id": "1",
      "location_type": 0,
      "parent_station": "IDFM:71013",
      "line": "IDFM:C01376",
      "wheelchair": 2
    },
    "IDFM:22168": {
      "stop_name": "Place d'Italie",
      "stop_lat": "48.830915",
      "stop_lon": "2.356102",
      "zone_id": "1",
      "location_type": 0,
      "parent_station": "IDFM:71033",
      "line": "IDFM:C01376",
      "wheelchair": 2
    },
    "IDFM:22169": {
      "stop_name": "Nationale",
      "stop_lat": "48.833182",
      "stop_lon": "2.362858",
      "zone_id": "1",
      "location_type": 0,
      "parent_station": "IDFM:71043",
      "line": "IDFM:C01376",
      "wheelchair": 2
    },
    "IDFM:463147": {
      "stop_name": "Chevaleret",
      "stop_lat": "48.834945",
      "stop_lon": "2.368095",
      "zone_id": "1",
      "location_type": 0,
      "parent_station": "IDFM:73651",
      "line": "IDFM:C01376",
      "wheelchair": 2
    },
    "IDFM:22161": {
      "stop_name": "Quai de la Gare",
      "stop_lat": "48.837003",
      "stop_lon": "2.372825",
      "zone_id": "1",
      "location_type": 0,
      "parent_station": "IDFM:71597",
      "line": "IDFM:C01376",
      "wheelchair": 2
    },
    "IDFM:22178": {
      "stop_name": "Bercy",
      "stop_lat": "48.840176",
      "stop_lon": "2.379463",
      "zone_id": "1",
      "location_type": 0,
      "parent_station": "IDFM:71607",
      "line": "IDFM:C01376",
      "wheelchair": 2
    },
    "IDFM:22182": {
      "stop_name": "Dugommier",
      "stop_lat": "48.838951",
      "stop_lon": "2.389601",
      "zone_id": "1",
      "location_type": 0,
      "parent_station": "IDFM:71606",
      "line": "IDFM:C01376",
      "wheelchair": 2
    },
    "IDFM:22181": {
      "stop_name": "Daumesnil",
      "stop_lat": "48.839434",
      "stop_lon": "2.396149",
      "zone_id": "1",
      "location_type": 0,
      "parent_station": "IDFM:71614",
      "line": "IDFM:C01376",
      "wheelchair": 2
    },
    "IDFM:463127": {
      "stop_name": "Bel-Air",
      "stop_lat": "48.841427",
      "stop_lon": "2.400867",
      "zone_id": "1",
      "location_type": 0,
      "parent_station": "IDFM:73650",
      "line": "IDFM:C01376",
      "wheelchair": 2
    },
    "IDFM:463098": {
      "stop_name": "Picpus",
      "stop_lat": "48.845103",
      "stop_lon": "2.401275",
      "zone_id": "1",
      "location_type": 0,
      "parent_station": "IDFM:71639",
      "line": "IDFM:C01376",
      "wheelchair": 2
    },
    "IDFM:463028": {
      "stop_name": "Nation",
      "stop_lat": "48.847891",
      "stop_lon": "2.395788",
      "zone_id": "1",
      "location_type": 0,
      "parent_station": "IDFM:71673",
      "line": "IDFM:C01376",
      "wheelchair": 2
    },
    "IDFM:463128": {
      "stop_name": "Bercy",
      "stop_lat": "48.840185",
      "stop_lon": "2.379477",
      "zone_id": "1",
      "location_type": 0,
      "parent_station": "IDFM:71607",
      "line": "IDFM:C01376",
      "wheelchair": 2
    },
    "IDFM:463288": {
      "stop_name": "Quai de la Gare",
      "stop_lat": "48.837074",
      "stop_lon": "2.372766",
      "zone_id": "1",
      "location_type": 0,
      "parent_station": "IDFM:71597",
      "line": "IDFM:C01376",
      "wheelchair": 2
    },
    "IDFM:22174": {
      "stop_name": "Chevaleret",
      "stop_lat": "48.834963",
      "stop_lon": "2.368081",
      "zone_id": "1",
      "location_type": 0,
      "parent_station": "IDFM:73651",
      "line": "IDFM:C01376",
      "wheelchair": 2
    },
    "IDFM:463004": {
      "stop_name": "Nationale",
      "stop_lat": "48.833235",
      "stop_lon": "2.362804",
      "zone_id": "1",
      "location_type": 0,
      "parent_station": "IDFM:71043",
      "line": "IDFM:C01376",
      "wheelchair": 2
    },
    "IDFM:463003": {
      "stop_name": "Place d'Italie",
      "stop_lat": "48.830991",
      "stop_lon": "2.356050",
      "zone_id": "1",
      "location_type": 0,
      "parent_station": "IDFM:71033",
      "line": "IDFM:C01376",
      "wheelchair": 2
    },
    "IDFM:22175": {
      "stop_name": "Corvisart",
      "stop_lat": "48.829860",
      "stop_lon": "2.350611",
      "zone_id": "1",
      "location_type": 0,
      "parent_station": "IDFM:71013",
      "line": "IDFM:C01376",
      "wheelchair": 2
    },
    "IDFM:22173": {
      "stop_name": "Glacière",
      "stop_lat": "48.831170",
      "stop_lon": "2.343497",
      "zone_id": "1",
      "location_type": 0,
      "parent_station": "IDFM:71026",
      "line": "IDFM:C01376",
      "wheelchair": 2
    },
    "IDFM:22160": {
      "stop_name": "Saint-Jacques",
      "stop_lat": "48.832916",
      "stop_lon": "2.337154",
      "zone_id": "1",
      "location_type": 0,
      "parent_station": "IDFM:71041",
      "line": "IDFM:C01376",
      "wheelchair": 2
    },
    "IDFM:22158": {
      "stop_name": "Denfert-Rochereau",
      "stop_lat": "48.834313",
      "stop_lon": "2.332872",
      "zone_id": "1",
      "location_type": 0,
      "parent_station": "IDFM:71056",
      "line": "IDFM:C01376",
      "wheelchair": 2
    },
    "IDFM:22155": {
      "stop_name": "Raspail",
      "stop_lat": "48.839085",
      "stop_lon": "2.330550",
      "zone_id": "1",
      "location_type": 0,
      "parent_station": "IDFM:71088",
      "line": "IDFM:C01376",
      "wheelchair": 2
    },
    "IDFM:22172": {
      "stop_name": "Edgar Quinet",
      "stop_lat": "48.840980",
      "stop_lon": "2.325375",
      "zone_id": "1",
      "location_type": 0,
      "parent_station": "IDFM:71108",
      "line": "IDFM:C01376",
      "wheelchair": 2
    },
    "IDFM:462955": {
      "stop_name": "Montparnasse Bienvenue",
      "stop_lat": "48.842131",
      "stop_lon": "2.321219",
      "zone_id": "1",
      "location_type": 0,
      "parent_station": "IDFM:71139",
      "line": "IDFM:C01376",
      "wheelchair": 2
    },
    "IDFM:462948": {
      "stop_name": "Pasteur",
      "stop_lat": "48.842528",
      "stop_lon": "2.312915",
      "zone_id": "1",
      "location_type": 0,
      "parent_station": "IDFM:71125",
      "line": "IDFM:C01376",
      "wheelchair": 2
    },
    "IDFM:463314": {
      "stop_name": "Sèvres-Lecourbe",
      "stop_lat": "48.845648",
      "stop_lon": "2.309530",
      "zone_id": "1",
      "location_type": 0,
      "parent_station": "IDFM:71144",
      "line": "IDFM:C01376",
      "wheelchair": 2
    },
    "IDFM:22176": {
      "stop_name": "Cambronne",
      "stop_lat": "48.847543",
      "stop_lon": "2.302942",
      "zone_id": "1",
      "location_type": 0,
      "parent_station": "IDFM:71167",
      "line": "IDFM:C01376",
      "wheelchair": 2
    },
    "IDFM:463194": {
      "stop_name": "La Motte-Picquet - Grenelle",
      "stop_lat": "48.848765",
      "stop_lon": "2.298957",
      "zone_id": "1",
      "location_type": 0,
      "parent_station": "IDFM:71199",
      "line": "IDFM:C01376",
      "wheelchair": 2
    },
    "IDFM:22171": {
      "stop_name": "Dupleix",
      "stop_lat": "48.850412",
      "stop_lon": "2.293664",
      "zone_id": "1",
      "location_type": 0,
      "parent_station": "IDFM:71197",
      "line": "IDFM:C01376",
      "wheelchair": 2
    },
    "IDFM:463005": {
      "stop_name": "Bir-Hakeim",
      "stop_lat": "48.853925",
      "stop_lon": "2.289401",
      "zone_id": "1",
      "location_type": 0,
      "parent_station": "IDFM:473829",
      "line": "IDFM:C01376",
      "wheelchair": 2
    },
    "IDFM:22165": {
      "stop_name": "Passy",
      "stop_lat": "48.857515",
      "stop_lon": "2.285839",
      "zone_id": "1",
      "location_type": 0,
      "parent_station": "IDFM:71237",
      "line": "IDFM:C01376",
      "wheelchair": 2
    },
    "IDFM:22164": {
      "stop_name": "Trocadéro",
      "stop_lat": "48.863461",
      "stop_lon": "2.287625",
      "zone_id": "1",
      "location_type": 0,
      "parent_station": "IDFM:71285",
      "line": "IDFM:C01376",
      "wheelchair": 2
    },
    "IDFM:463114": {
      "stop_name": "Boissière",
      "stop_lat": "48.866848",
      "stop_lon": "2.290033",
      "zone_id": "1",
      "location_type": 0,
      "parent_station": "IDFM:71301",
      "line": "IDFM:C01376",
      "wheelchair": 2
    },
    "IDFM:463102": {
      "stop_name": "Kléber",
      "stop_lat": "48.871302",
      "stop_lon": "2.293326",
      "zone_id": "1",
      "location_type": 0,
      "parent_station": "IDFM:73656",
      "line": "IDFM:C01376",
      "wheelchair": 2
    },
    "IDFM:463042": {
      "stop_name": "Charles de Gaulle - Etoile",
      "stop_lat": "48.873711",
      "stop_lon": "2.294752",
      "zone_id": "1",
      "location_type": 0,
      "parent_station": "IDFM:71347",
      "line": "IDFM:C01376",
      "wheelchair": 2
    },
    "IDFM:22073": {
      "stop_name": "Nation",
      "stop_lat": "48.847896",
      "stop_lon": "2.395860",
      "zone_id": "1",
      "location_type": 0,
      "parent_station": "IDFM:71673",
      "line": "IDFM:C01376",
      "wheelchair": 2
    },
    "IDFM:22167": {
      "stop_name": "Picpus",
      "stop_lat": "48.845018",
      "stop_lon": "2.401248",
      "zone_id": "1",
      "location_type": 0,
      "parent_station": "IDFM:71639",
      "line": "IDFM:C01376",
      "wheelchair": 2
    },
    "IDFM:22177": {
      "stop_name": "Bel-Air",
      "stop_lat": "48.841427",
      "stop_lon": "2.400867",
      "zone_id": "1",
      "location_type": 0,
      "parent_station": "IDFM:73650",
      "line": "IDFM:C01376",
      "wheelchair": 2
    },
    "IDFM:463169": {
      "stop_name": "Daumesnil",
      "stop_lat": "48.839537",
      "stop_lon": "2.396146",
      "zone_id": "1",
      "location_type": 0,
      "parent_station": "IDFM:71614",
      "line": "IDFM:C01376",
      "wheelchair": 2
    },
    "IDFM:463075": {
      "stop_name": "Dugommier",
      "stop_lat": "48.839037",
      "stop_lon": "2.389600",
      "zone_id": "1",
      "location_type": 0,
      "parent_station": "IDFM:71606",
      "line": "IDFM:C01376",
      "wheelchair": 2
    },
    "IDFM:22396": {
      "stop_name": "Mairie d'Ivry",
      "stop_lat": "48.811210",
      "stop_lon": "2.383498",
      "zone_id": "2",
      "location_type": 0,
      "parent_station": "IDFM:70488",
      "line": "IDFM:C01377",
      "wheelchair": 2
    },
    "IDFM:463251": {
      "stop_name": "Pierre et Marie Curie",
      "stop_lat": "48.815878",
      "stop_lon": "2.377363",
      "zone_id": "2",
      "location_type": 0,
      "parent_station": "IDFM:70537",
      "line": "IDFM:C01377",
      "wheelchair": 2
    },
    "IDFM:22372": {
      "stop_name": "Porte d'Ivry",
      "stop_lat": "48.821489",
      "stop_lon": "2.369511",
      "zone_id": "1",
      "location_type": 0,
      "parent_station": "IDFM:70636",
      "line": "IDFM:C01377",
      "wheelchair": 2
    },
    "IDFM:22373": {
      "stop_name": "Porte de Choisy",
      "stop_lat": "48.820132",
      "stop_lon": "2.364625",
      "zone_id": "1",
      "location_type": 0,
      "parent_station": "IDFM:70604",
      "line": "IDFM:C01377",
      "wheelchair": 2
    },
    "IDFM:463235": {
      "stop_name": "Porte d'Italie",
      "stop_lat": "48.819107",
      "stop_lon": "2.359530",
      "zone_id": "1",
      "location_type": 0,
      "parent_station": "IDFM:70596",
      "line": "IDFM:C01377",
      "wheelchair": 2
    },
    "IDFM:22385": {
      "stop_name": "Maison Blanche",
      "stop_lat": "48.822168",
      "stop_lon": "2.358539",
      "zone_id": "1",
      "location_type": 0,
      "parent_station": "IDFM:70645",
      "line": "IDFM:C01377",
      "wheelchair": 2
    },
    "IDFM:22370": {
      "stop_name": "Tolbiac",
      "stop_lat": "48.826137",
      "stop_lon": "2.357318",
      "zone_id": "1",
      "location_type": 0,
      "parent_station": "IDFM:71001",
      "line": "IDFM:C01377",
      "wheelchair": 2
    },
    "IDFM:463026": {
      "stop_name": "Place d'Italie",
      "stop_lat": "48.831549",
      "stop_lon": "2.355331",
      "zone_id": "1",
      "location_type": 0,
      "parent_station": "IDFM:71033",
      "line": "IDFM:C01377",
      "wheelchair": 2
    },
    "IDFM:463216": {
      "stop_name": "Les Gobelins",
      "stop_lat": "48.835892",
      "stop_lon": "2.352531",
      "zone_id": "1",
      "location_type": 0,
      "parent_station": "IDFM:71076",
      "line": "IDFM:C01377",
      "wheelchair": 2
    },
    "IDFM:22391": {
      "stop_name": "Censier - Daubenton",
      "stop_lat": "48.840226",
      "stop_lon": "2.351627",
      "zone_id": "1",
      "location_type": 0,
      "parent_station": "IDFM:71100",
      "line": "IDFM:C01377",
      "wheelchair": 2
    },
    "IDFM:22366": {
      "stop_name": "Place Monge",
      "stop_lat": "48.842666",
      "stop_lon": "2.352155",
      "zone_id": "1",
      "location_type": 0,
      "parent_station": "IDFM:71133",
      "line": "IDFM:C01377",
      "wheelchair": 2
    },
    "IDFM:22386": {
      "stop_name": "Jussieu",
      "stop_lat": "48.845963",
      "stop_lon": "2.354798",
      "zone_id": "1",
      "location_type": 0,
      "parent_station": "IDFM:71148",
      "line": "IDFM:C01377",
      "wheelchair": 2
    },
    "IDFM:463265": {
      "stop_name": "Sully - Morland",
      "stop_lat": "48.851271",
      "stop_lon": "2.361853",
      "zone_id": "1",
      "location_type": 0,
      "parent_station": "IDFM:71201",
      "line": "IDFM:C01377",
      "wheelchair": 2
    },
    "IDFM:463231": {
      "stop_name": "Pont Marie (Cité des Arts)",
      "stop_lat": "48.853532",
      "stop_lon": "2.357430",
      "zone_id": "1",
      "location_type": 0,
      "parent_station": "IDFM:71217",
      "line": "IDFM:C01377",
      "wheelchair": 2
    },
    "IDFM:22364": {
      "stop_name": "Châtelet",
      "stop_lat": "48.856953",
      "stop_lon": "2.348161",
      "zone_id": "1",
      "location_type": 0,
      "parent_station": "IDFM:71264",
      "line": "IDFM:C01377",
      "wheelchair": 2
    },
    "IDFM:463232": {
      "stop_name": "Pont Neuf",
      "stop_lat": "48.858546",
      "stop_lon": "2.341777",
      "zone_id": "1",
      "location_type": 0,
      "parent_station": "IDFM:71253",
      "line": "IDFM:C01377",
      "wheelchair": 2
    },
    "IDFM:463249": {
      "stop_name": "Palais Royal - Musée du Louvre",
      "stop_lat": "48.862765",
      "stop_lon": "2.337087",
      "zone_id": "1",
      "location_type": 0,
      "parent_station": "IDFM:71297",
      "line": "IDFM:C01377",
      "wheelchair": 2
    },
    "IDFM:22375": {
      "stop_name": "Pyramides",
      "stop_lat": "48.865880",
      "stop_lon": "2.334418",
      "zone_id": "1",
      "location_type": 0,
      "parent_station": "IDFM:73788",
      "line": "IDFM:C01377",
      "wheelchair": 2
    },
    "IDFM:463245": {
      "stop_name": "Opéra",
      "stop_lat": "48.870326",
      "stop_lon": "2.332572",
      "zone_id": "1",
      "location_type": 0,
      "parent_station": "IDFM:71337",
      "line": "IDFM:C01377",
      "wheelchair": 2
    },
    "IDFM:22388": {
      "stop_name": "Chaussée d'Antin - La Fayette",
      "stop_lat": "48.873134",
      "stop_lon": "2.333739",
      "zone_id": "1",
      "location_type": 0,
      "parent_station": "IDFM:73689",
      "line": "IDFM:C01377",
      "wheelchair": 2
    },
    "IDFM:463206": {
      "stop_name": "Le Peletier",
      "stop_lat": "48.874852",
      "stop_lon": "2.340206",
      "zone_id": "1",
      "location_type": 0,
      "parent_station": "IDFM:478885",
      "line": "IDFM:C01377",
      "wheelchair": 2
    },
    "IDFM:22390": {
      "stop_name": "Cadet",
      "stop_lat": "48.875963",
      "stop_lon": "2.344446",
      "zone_id": "1",
      "location_type": 0,
      "parent_station": "IDFM:71351",
      "line": "IDFM:C01377",
      "wheelchair": 2
    },
    "IDFM:463255": {
      "stop_name": "Poissonnière",
      "stop_lat": "48.877080",
      "stop_lon": "2.348794",
      "zone_id": "1",
      "location_type": 0,
      "parent_station": "IDFM:71363",
      "line": "IDFM:C01377",
      "wheelchair": 2
    },
    "IDFM:463001": {
      "stop_name": "Gare de l'Est",
      "stop_lat": "48.876271",
      "stop_lon": "2.358121",
      "zone_id": "1",
      "location_type": 0,
      "parent_station": "IDFM:71359",
      "line": "IDFM:C01377",
      "wheelchair": 2
    },
    "IDFM:22367": {
      "stop_name": "Château Landon",
      "stop_lat": "48.878441",
      "stop_lon": "2.362018",
      "zone_id": "1",
      "location_type": 0,
      "parent_station": "IDFM:474149",
      "line": "IDFM:C01377",
      "wheelchair": 2
    },
    "IDFM:463033": {
      "stop_name": "Louis Blanc",
      "stop_lat": "48.880895",
      "stop_lon": "2.365097",
      "zone_id": "1",
      "location_type": 0,
      "parent_station": "IDFM:71407",
      "line": "IDFM:C01377",
      "wheelchair": 2
    },
    "IDFM:22368": {
      "stop_name": "Stalingrad",
      "stop_lat": "48.884315",
      "stop_lon": "2.368996",
      "zone_id": "1",
      "location_type": 0,
      "parent_station": "IDFM:71961",
      "line": "IDFM:C01377",
      "wheelchair": 2
    },
    "IDFM:22371": {
      "stop_name": "Riquet",
      "stop_lat": "48.888108",
      "stop_lon": "2.373764",
      "zone_id": "1",
      "location_type": 0,
      "parent_station": "IDFM:71977",
      "line": "IDFM:C01377",
      "wheelchair": 2
    },
    "IDFM:463155": {
      "stop_name": "Crimée",
      "stop_lat": "48.890814",
      "stop_lon": "2.377038",
      "zone_id": "1",
      "location_type": 0,
      "parent_station": "IDFM:72013",
      "line": "IDFM:C01377",
      "wheelchair": 2
    },
    "IDFM:22389": {
      "stop_name": "Corentin Cariou",
      "stop_lat": "48.894673",
      "stop_lon": "2.382292",
      "zone_id": "1",
      "location_type": 0,
      "parent_station": "IDFM:72031",
      "line": "IDFM:C01377",
      "wheelchair": 2
    },
    "IDFM:22374": {
      "stop_name": "Porte de la Villette",
      "stop_lat": "48.897803",
      "stop_lon": "2.385869",
      "zone_id": "1",
      "location_type": 0,
      "parent_station": "IDFM:72430",
      "line": "IDFM:C01377",
      "wheelchair": 2
    },
    "IDFM:463031": {
      "stop_name": "Aubervilliers-Pantin Quatre Chemins",
      "stop_lat": "48.903757",
      "stop_lon": "2.392221",
      "zone_id": "2",
      "location_type": 0,
      "parent_station": "IDFM:72460",
      "line": "IDFM:C01377",
      "wheelchair": 2
    },
    "IDFM:463179": {
      "stop_name": "Fort d'Aubervilliers",
      "stop_lat": "48.914708",
      "stop_lon": "2.404188",
      "zone_id": "2",
      "location_type": 0,
      "parent_station": "IDFM:73695",
      "line": "IDFM:C01377",
      "wheelchair": 2
    },
    "IDFM:22395": {
      "stop_name": "La Courneuve - 8 Mai 1945",
      "stop_lat": "48.920246",
      "stop_lon": "2.410221",
      "zone_id": "2",
      "location_type": 0,
      "parent_station": "IDFM:73696",
      "line": "IDFM:C01377",
      "wheelchair": 2
    },
    "IDFM:22365": {
      "stop_name": "Place d'Italie",
      "stop_lat": "48.831540",
      "stop_lon": "2.355304",
      "zone_id": "1",
      "location_type": 0,
      "parent_station": "IDFM:71033",
      "line": "IDFM:C01377",
      "wheelchair": 2
    },
    "IDFM:463267": {
      "stop_name": "Tolbiac",
      "stop_lat": "48.826153",
      "stop_lon": "2.357019",
      "zone_id": "1",
      "location_type": 0,
      "parent_station": "IDFM:71001",
      "line": "IDFM:C01377",
      "wheelchair": 2
    },
    "IDFM:463224": {
      "stop_name": "Maison Blanche",
      "stop_lat": "48.822150",
      "stop_lon": "2.358413",
      "zone_id": "1",
      "location_type": 0,
      "parent_station": "IDFM:70645",
      "line": "IDFM:C01377",
      "wheelchair": 2
    },
    "IDFM:22398": {
      "stop_name": "Le Kremlin-Bicêtre",
      "stop_lat": "48.810253",
      "stop_lon": "2.362130",
      "zone_id": "2",
      "location_type": 0,
      "parent_station": "IDFM:70452",
      "line": "IDFM:C01377",
      "wheelchair": 2
    },
    "IDFM:22399": {
      "stop_name": "Villejuif Léo Lagrange",
      "stop_lat": "48.804353",
      "stop_lon": "2.363932",
      "zone_id": "2",
      "location_type": 0,
      "parent_station": "IDFM:70375",
      "line": "IDFM:C01377",
      "wheelchair": 2
    },
    "IDFM:463324": {
      "stop_name": "Villejuif Paul Vaillant-Couturier",
      "stop_lat": "48.796308",
      "stop_lon": "2.368196",
      "zone_id": "2",
      "location_type": 0,
      "parent_station": "IDFM:70248",
      "line": "IDFM:C01377",
      "wheelchair": 2
    },
    "IDFM:463269": {
      "stop_name": "Villejuif - Louis Aragon",
      "stop_lat": "48.787573",
      "stop_lon": "2.367717",
      "zone_id": "2",
      "location_type": 0,
      "parent_station": "IDFM:70143",
      "line": "IDFM:C01377",
      "wheelchair": 2
    },
    "IDFM:22400": {
      "stop_name": "Villejuif - Louis Aragon",
      "stop_lat": "48.787537",
      "stop_lon": "2.367839",
      "zone_id": "2",
      "location_type": 0,
      "parent_station": "IDFM:70143",
      "line": "IDFM:C01377",
      "wheelchair": 2
    },
    "IDFM:22401": {
      "stop_name": "Villejuif Paul Vaillant-Couturier",
      "stop_lat": "48.796318",
      "stop_lon": "2.368332",
      "zone_id": "2",
      "location_type": 0,
      "parent_station": "IDFM:70248",
      "line": "IDFM:C01377",
      "wheelchair": 2
    },
    "IDFM:463323": {
      "stop_name": "Villejuif Léo Lagrange",
      "stop_lat": "48.804367",
      "stop_lon": "2.364069",
      "zone_id": "2",
      "location_type": 0,
      "parent_station": "IDFM:70375",
      "line": "IDFM:C01377",
      "wheelchair": 2
    },
    "IDFM:463107": {
      "stop_name": "Le Kremlin-Bicêtre",
      "stop_lat": "48.810280",
      "stop_lon": "2.362272",
      "zone_id": "2",
      "location_type": 0,
      "parent_station": "IDFM:70452",
      "line": "IDFM:C01377",
      "wheelchair": 2
    },
    "IDFM:463200": {
      "stop_name": "La Courneuve - 8 Mai 1945",
      "stop_lat": "48.920371",
      "stop_lon": "2.410008",
      "zone_id": "2",
      "location_type": 0,
      "parent_station": "IDFM:73696",
      "line": "IDFM:C01377",
      "wheelchair": 2
    },
    "IDFM:22393": {
      "stop_name": "Fort d'Aubervilliers",
      "stop_lat": "48.914757",
      "stop_lon": "2.404075",
      "zone_id": "2",
      "location_type": 0,
      "parent_station": "IDFM:73695",
      "line": "IDFM:C01377",
      "wheelchair": 2
    },
    "IDFM:22394": {
      "stop_name": "Aubervilliers-Pantin Quatre Chemins",
      "stop_lat": "48.903797",
      "stop_lon": "2.392114",
      "zone_id": "2",
      "location_type": 0,
      "parent_station": "IDFM:72460",
      "line": "IDFM:C01377",
      "wheelchair": 2
    },
    "IDFM:463007": {
      "stop_name": "Porte de la Villette",
      "stop_lat": "48.897865",
      "stop_lon": "2.385779",
      "zone_id": "1",
      "location_type": 0,
      "parent_station": "IDFM:72430",
      "line": "IDFM:C01377",
      "wheelchair": 2
    },
    "IDFM:463152": {
      "stop_name": "Corentin Cariou",
      "stop_lat": "48.894673",
      "stop_lon": "2.382292",
      "zone_id": "1",
      "location_type": 0,
      "parent_station": "IDFM:72031",
      "line": "IDFM:C01377",
      "wheelchair": 2
    },
    "IDFM:22392": {
      "stop_name": "Crimée",
      "stop_lat": "48.890886",
      "stop_lon": "2.376936",
      "zone_id": "1",
      "location_type": 0,
      "parent_station": "IDFM:72013",
      "line": "IDFM:C01377",
      "wheelchair": 2
    },
    "IDFM:463295": {
      "stop_name": "Riquet",
      "stop_lat": "48.888157",
      "stop_lon": "2.373669",
      "zone_id": "1",
      "location_type": 0,
      "parent_station": "IDFM:71977",
      "line": "IDFM:C01377",
      "wheelchair": 2
    },
    "IDFM:463008": {
      "stop_name": "Stalingrad",
      "stop_lat": "48.884373",
      "stop_lon": "2.368899",
      "zone_id": "1",
      "location_type": 0,
      "parent_station": "IDFM:71961",
      "line": "IDFM:C01377",
      "wheelchair": 2
    },
    "IDFM:22384": {
      "stop_name": "Louis Blanc",
      "stop_lat": "48.881242",
      "stop_lon": "2.364356",
      "zone_id": "1",
      "location_type": 0,
      "parent_station": "IDFM:71407",
      "line": "IDFM:C01377",
      "wheelchair": 2
    },
    "IDFM:463006": {
      "stop_name": "Château Landon",
      "stop_lat": "48.878451",
      "stop_lon": "2.362045",
      "zone_id": "1",
      "location_type": 0,
      "parent_station": "IDFM:474149",
      "line": "IDFM:C01377",
      "wheelchair": 2
    },
    "IDFM:22387": {
      "stop_name": "Gare de l'Est",
      "stop_lat": "48.876361",
      "stop_lon": "2.358103",
      "zone_id": "1",
      "location_type": 0,
      "parent_station": "IDFM:71359",
      "line": "IDFM:C01377",
      "wheelchair": 2
    },
    "IDFM:22377": {
      "stop_name": "Poissonnière",
      "stop_lat": "48.877165",
      "stop_lon": "2.348740",
      "zone_id": "1",
      "location_type": 0,
      "parent_station": "IDFM:71363",
      "line": "IDFM:C01377",
      "wheelchair": 2
    },
    "IDFM:463139": {
      "stop_name": "Cadet",
      "stop_lat": "48.876048",
      "stop_lon": "2.344384",
      "zone_id": "1",
      "location_type": 0,
      "parent_station": "IDFM:71351",
      "line": "IDFM:C01377",
      "wheelchair": 2
    },
    "IDFM:22382": {
      "stop_name": "Le Peletier",
      "stop_lat": "48.874959",
      "stop_lon": "2.340151",
      "zone_id": "1",
      "location_type": 0,
      "parent_station": "IDFM:478885",
      "line": "IDFM:C01377",
      "wheelchair": 2
    },
    "IDFM:463145": {
      "stop_name": "Chaussée d'Antin - La Fayette",
      "stop_lat": "48.873201",
      "stop_lon": "2.333670",
      "zone_id": "1",
      "location_type": 0,
      "parent_station": "IDFM:73689",
      "line": "IDFM:C01377",
      "wheelchair": 2
    },
    "IDFM:22381": {
      "stop_name": "Opéra",
      "stop_lat": "48.870303",
      "stop_lon": "2.332439",
      "zone_id": "1",
      "location_type": 0,
      "parent_station": "IDFM:71337",
      "line": "IDFM:C01377",
      "wheelchair": 2
    },
    "IDFM:463283": {
      "stop_name": "Pyramides",
      "stop_lat": "48.865830",
      "stop_lon": "2.334292",
      "zone_id": "1",
      "location_type": 0,
      "parent_station": "IDFM:73788",
      "line": "IDFM:C01377",
      "wheelchair": 2
    },
    "IDFM:22376": {
      "stop_name": "Palais Royal - Musée du Louvre",
      "stop_lat": "48.862684",
      "stop_lon": "2.337007",
      "zone_id": "1",
      "location_type": 0,
      "parent_station": "IDFM:71297",
      "line": "IDFM:C01377",
      "wheelchair": 2
    },
    "IDFM:22379": {
      "stop_name": "Pont Neuf",
      "stop_lat": "48.858456",
      "stop_lon": "2.341709",
      "zone_id": "1",
      "location_type": 0,
      "parent_station": "IDFM:71253",
      "line": "IDFM:C01377",
      "wheelchair": 2
    },
    "IDFM:463060": {
      "stop_name": "Châtelet",
      "stop_lat": "48.856868",
      "stop_lon": "2.348102",
      "zone_id": "1",
      "location_type": 0,
      "parent_station": "IDFM:71264",
      "line": "IDFM:C01377",
      "wheelchair": 2
    },
    "IDFM:22378": {
      "stop_name": "Pont Marie (Cité des Arts)",
      "stop_lat": "48.853415",
      "stop_lon": "2.357350",
      "zone_id": "1",
      "location_type": 0,
      "parent_station": "IDFM:71217",
      "line": "IDFM:C01377",
      "wheelchair": 2
    },
    "IDFM:22369": {
      "stop_name": "Sully - Morland",
      "stop_lat": "48.851208",
      "stop_lon": "2.361752",
      "zone_id": "1",
      "location_type": 0,
      "parent_station": "IDFM:71201",
      "line": "IDFM:C01377",
      "wheelchair": 2
    },
    "IDFM:463078": {
      "stop_name": "Jussieu",
      "stop_lat": "48.845963",
      "stop_lon": "2.354798",
      "zone_id": "1",
      "location_type": 0,
      "parent_station": "IDFM:71148",
      "line": "IDFM:C01377",
      "wheelchair": 2
    },
    "IDFM:463106": {
      "stop_name": "Place Monge",
      "stop_lat": "48.842684",
      "stop_lon": "2.352006",
      "zone_id": "1",
      "location_type": 0,
      "parent_station": "IDFM:71133",
      "line": "IDFM:C01377",
      "wheelchair": 2
    },
    "IDFM:463157": {
      "stop_name": "Censier - Daubenton",
      "stop_lat": "48.840266",
      "stop_lon": "2.351495",
      "zone_id": "1",
      "location_type": 0,
      "parent_station": "IDFM:71100",
      "line": "IDFM:C01377",
      "wheelchair": 2
    },
    "IDFM:22383": {
      "stop_name": "Les Gobelins",
      "stop_lat": "48.835842",
      "stop_lon": "2.352417",
      "zone_id": "1",
      "location_type": 0,
      "parent_station": "IDFM:71076",
      "line": "IDFM:C01377",
      "wheelchair": 2
    },
    "IDFM:22380": {
      "stop_name": "Porte d'Italie",
      "stop_lat": "48.819034",
      "stop_lon": "2.359463",
      "zone_id": "1",
      "location_type": 0,
      "parent_station": "IDFM:70596",
      "line": "IDFM:C01377",
      "wheelchair": 2
    },
    "IDFM:463030": {
      "stop_name": "Porte de Choisy",
      "stop_lat": "48.820056",
      "stop_lon": "2.364679",
      "zone_id": "1",
      "location_type": 0,
      "parent_station": "IDFM:70604",
      "line": "IDFM:C01377",
      "wheelchair": 2
    },
    "IDFM:463029": {
      "stop_name": "Porte d'Ivry",
      "stop_lat": "48.821353",
      "stop_lon": "2.369295",
      "zone_id": "1",
      "location_type": 0,
      "parent_station": "IDFM:70636",
      "line": "IDFM:C01377",
      "wheelchair": 2
    },
    "IDFM:22397": {
      "stop_name": "Pierre et Marie Curie",
      "stop_lat": "48.815837",
      "stop_lon": "2.377247",
      "zone_id": "2",
      "location_type": 0,
      "parent_station": "IDFM:70537",
      "line": "IDFM:C01377",
      "wheelchair": 2
    },
    "IDFM:463220": {
      "stop_name": "Mairie d'Ivry",
      "stop_lat": "48.811210",
      "stop_lon": "2.383498",
      "zone_id": "2",
      "location_type": 0,
      "parent_station": "IDFM:70488",
      "line": "IDFM:C01377",
      "wheelchair": 2
    },
    "IDFM:22186": {
      "stop_name": "Balard",
      "stop_lat": "48.836651",
      "stop_lon": "2.278509",
      "zone_id": "1",
      "location_type": 0,
      "parent_station": "IDFM:71073",
      "line": "IDFM:C01378",
      "wheelchair": 2
    },
    "IDFM:22187": {
      "stop_name": "Lourmel",
      "stop_lat": "48.838661",
      "stop_lon": "2.282242",
      "zone_id": "1",
      "location_type": 0,
      "parent_station": "IDFM:71086",
      "line": "IDFM:C01378",
      "wheelchair": 2
    },
    "IDFM:22188": {
      "stop_name": "Boucicaut",
      "stop_lat": "48.841024",
      "stop_lon": "2.287918",
      "zone_id": "1",
      "location_type": 0,
      "parent_station": "IDFM:412992",
      "line": "IDFM:C01378",
      "wheelchair": 2
    },
    "IDFM:22189": {
      "stop_name": "Félix Faure",
      "stop_lat": "48.842684",
      "stop_lon": "2.291847",
      "zone_id": "1",
      "location_type": 0,
      "parent_station": "IDFM:71137",
      "line": "IDFM:C01378",
      "wheelchair": 2
    },
    "IDFM:463162": {
      "stop_name": "Commerce",
      "stop_lat": "48.844585",
      "stop_lon": "2.293852",
      "zone_id": "1",
      "location_type": 0,
      "parent_station": "IDFM:71132",
      "line": "IDFM:C01378",
      "wheelchair": 2
    },
    "IDFM:22183": {
      "stop_name": "La Motte-Picquet - Grenelle",
      "stop_lat": "48.849506",
      "stop_lon": "2.298745",
      "zone_id": "1",
      "location_type": 0,
      "parent_station": "IDFM:71199",
      "line": "IDFM:C01378",
      "wheelchair": 2
    },
    "IDFM:463177": {
      "stop_name": "École Militaire",
      "stop_lat": "48.854862",
      "stop_lon": "2.306441",
      "zone_id": "1",
      "location_type": 0,
      "parent_station": "IDFM:71224",
      "line": "IDFM:C01378",
      "wheelchair": 2
    },
    "IDFM:22192": {
      "stop_name": "La Tour-Maubourg",
      "stop_lat": "48.857669",
      "stop_lon": "2.310589",
      "zone_id": "1",
      "location_type": 0,
      "parent_station": "IDFM:71242",
      "line": "IDFM:C01378",
      "wheelchair": 2
    },
    "IDFM:463199": {
      "stop_name": "Invalides",
      "stop_lat": "48.860599",
      "stop_lon": "2.314997",
      "zone_id": "1",
      "location_type": 0,
      "parent_station": "IDFM:71274",
      "line": "IDFM:C01378",
      "wheelchair": 2
    },
    "IDFM:22096": {
      "stop_name": "Concorde",
      "stop_lat": "48.866521",
      "stop_lon": "2.322032",
      "zone_id": "1",
      "location_type": 0,
      "parent_station": "IDFM:71298",
      "line": "IDFM:C01378",
      "wheelchair": 2
    },
    "IDFM:22194": {
      "stop_name": "Madeleine",
      "stop_lat": "48.869566",
      "stop_lon": "2.326027",
      "zone_id": "1",
      "location_type": 0,
      "parent_station": "IDFM:71324",
      "line": "IDFM:C01378",
      "wheelchair": 2
    },
    "IDFM:22195": {
      "stop_name": "Opéra",
      "stop_lat": "48.870598",
      "stop_lon": "2.332135",
      "zone_id": "1",
      "location_type": 0,
      "parent_station": "IDFM:71337",
      "line": "IDFM:C01378",
      "wheelchair": 2
    },
    "IDFM:463037": {
      "stop_name": "Richelieu - Drouot",
      "stop_lat": "48.871641",
      "stop_lon": "2.338460",
      "zone_id": "1",
      "location_type": 0,
      "parent_station": "IDFM:71330",
      "line": "IDFM:C01378",
      "wheelchair": 2
    },
    "IDFM:22197": {
      "stop_name": "Grands Boulevards",
      "stop_lat": "48.871467",
      "stop_lon": "2.342840",
      "zone_id": "1",
      "location_type": 0,
      "parent_station": "IDFM:71326",
      "line": "IDFM:C01378",
      "wheelchair": 2
    },
    "IDFM:463115": {
      "stop_name": "Bonne Nouvelle",
      "stop_lat": "48.870481",
      "stop_lon": "2.348496",
      "zone_id": "1",
      "location_type": 0,
      "parent_station": "IDFM:71320",
      "line": "IDFM:C01378",
      "wheelchair": 2
    },
    "IDFM:22159": {
      "stop_name": "Strasbourg - Saint-Denis",
      "stop_lat": "48.869386",
      "stop_lon": "2.353745",
      "zone_id": "1",
      "location_type": 0,
      "parent_station": "IDFM:73633",
      "line": "IDFM:C01378",
      "wheelchair": 2
    },
    "IDFM:462962": {
      "stop_name": "République",
      "stop_lat": "48.867422",
      "stop_lon": "2.363149",
      "zone_id": "1",
      "location_type": 0,
      "parent_station": "IDFM:71311",
      "line": "IDFM:C01378",
      "wheelchair": 2
    },
    "IDFM:463048": {
      "stop_name": "Filles du Calvaire",
      "stop_lat": "48.863042",
      "stop_lon": "2.366596",
      "zone_id": "1",
      "location_type": 0,
      "parent_station": "IDFM:71277",
      "line": "IDFM:C01378",
      "wheelchair": 2
    },
    "IDFM:463309": {
      "stop_name": "Saint-Sébastien - Froissart",
      "stop_lat": "48.860949",
      "stop_lon": "2.367125",
      "zone_id": "1",
      "location_type": 0,
      "parent_station": "IDFM:71777",
      "line": "IDFM:C01378",
      "wheelchair": 2
    },
    "IDFM:463146": {
      "stop_name": "Chemin Vert",
      "stop_lat": "48.857087",
      "stop_lon": "2.368095",
      "zone_id": "1",
      "location_type": 0,
      "parent_station": "IDFM:73622",
      "line": "IDFM:C01378",
      "wheelchair": 2
    },
    "IDFM:22097": {
      "stop_name": "Bastille",
      "stop_lat": "48.853425",
      "stop_lon": "2.369506",
      "zone_id": "1",
      "location_type": 0,
      "parent_station": "IDFM:463564",
      "line": "IDFM:C01378",
      "wheelchair": 2
    },
    "IDFM:463195": {
      "stop_name": "Ledru-Rollin",
      "stop_lat": "48.851193",
      "stop_lon": "2.375925",
      "zone_id": "1",
      "location_type": 0,
      "parent_station": "IDFM:71693",
      "line": "IDFM:C01378",
      "wheelchair": 2
    },
    "IDFM:463172": {
      "stop_name": "Faidherbe - Chaligny",
      "stop_lat": "48.850111",
      "stop_lon": "2.384029",
      "zone_id": "1",
      "location_type": 0,
      "parent_station": "IDFM:74001",
      "line": "IDFM:C01378",
      "wheelchair": 2
    },
    "IDFM:463293": {
      "stop_name": "Reuilly - Diderot",
      "stop_lat": "48.847095",
      "stop_lon": "2.386959",
      "zone_id": "1",
      "location_type": 0,
      "parent_station": "IDFM:71654",
      "line": "IDFM:C01378",
      "wheelchair": 2
    },
    "IDFM:463241": {
      "stop_name": "Montgallet",
      "stop_lat": "48.844005",
      "stop_lon": "2.390400",
      "zone_id": "1",
      "location_type": 0,
      "parent_station": "IDFM:71631",
      "line": "IDFM:C01378",
      "wheelchair": 2
    },
    "IDFM:463168": {
      "stop_name": "Daumesnil",
      "stop_lat": "48.839674",
      "stop_lon": "2.395574",
      "zone_id": "1",
      "location_type": 0,
      "parent_station": "IDFM:71614",
      "line": "IDFM:C01378",
      "wheelchair": 2
    },
    "IDFM:22206": {
      "stop_name": "Michel Bizot",
      "stop_lat": "48.837001",
      "stop_lon": "2.402280",
      "zone_id": "1",
      "location_type": 0,
      "parent_station": "IDFM:71595",
      "line": "IDFM:C01378",
      "wheelchair": 2
    },
    "IDFM:22207": {
      "stop_name": "Porte Dorée",
      "stop_lat": "48.835066",
      "stop_lon": "2.405749",
      "zone_id": "1",
      "location_type": 0,
      "parent_station": "IDFM:71591",
      "line": "IDFM:C01378",
      "wheelchair": 2
    },
    "IDFM:463277": {
      "stop_name": "Porte de Charenton",
      "stop_lat": "48.833610",
      "stop_lon": "2.402373",
      "zone_id": "1",
      "location_type": 0,
      "parent_station": "IDFM:71579",
      "line": "IDFM:C01378",
      "wheelchair": 2
    },
    "IDFM:463209": {
      "stop_name": "Liberté",
      "stop_lat": "48.826080",
      "stop_lon": "2.406409",
      "zone_id": "2",
      "location_type": 0,
      "parent_station": "IDFM:71558",
      "line": "IDFM:C01378",
      "wheelchair": 2
    },
    "IDFM:22210": {
      "stop_name": "Charenton - Écoles",
      "stop_lat": "48.821256",
      "stop_lon": "2.413847",
      "zone_id": "2",
      "location_type": 0,
      "parent_station": "IDFM:70648",
      "line": "IDFM:C01378",
      "wheelchair": 2
    },
    "IDFM:22214": {
      "stop_name": "Ecole Vétérinaire de Maisons-Alfort",
      "stop_lat": "48.814759",
      "stop_lon": "2.422323",
      "zone_id": "2",
      "location_type": 0,
      "parent_station": "IDFM:70522",
      "line": "IDFM:C01378",
      "wheelchair": 2
    },
    "IDFM:22215": {
      "stop_name": "Maisons-Alfort - Stade",
      "stop_lat": "48.808918",
      "stop_lon": "2.434820",
      "zone_id": "2",
      "location_type": 0,
      "parent_station": "IDFM:70426",
      "line": "IDFM:C01378",
      "wheelchair": 2
    },
    "IDFM:22216": {
      "stop_name": "Maisons-Alfort - Les Juilliottes",
      "stop_lat": "48.803106",
      "stop_lon": "2.445788",
      "zone_id": "2",
      "location_type": 0,
      "parent_station": "IDFM:70358",
      "line": "IDFM:C01378",
      "wheelchair": 2
    },
    "IDFM:22211": {
      "stop_name": "Créteil - L'Échat",
      "stop_lat": "48.796611",
      "stop_lon": "2.449370",
      "zone_id": "2",
      "location_type": 0,
      "parent_station": "IDFM:70269",
      "line": "IDFM:C01378",
      "wheelchair": 2
    },
    "IDFM:22212": {
      "stop_name": "Créteil - Université",
      "stop_lat": "48.789916",
      "stop_lon": "2.450529",
      "zone_id": "2",
      "location_type": 0,
      "parent_station": "IDFM:70172",
      "line": "IDFM:C01378",
      "wheelchair": 2
    },
    "IDFM:463056": {
      "stop_name": "Créteil - Préfecture",
      "stop_lat": "48.779757",
      "stop_lon": "2.459305",
      "zone_id": "2",
      "location_type": 0,
      "parent_station": "IDFM:70021",
      "line": "IDFM:C01378",
      "wheelchair": 2
    },
    "IDFM:21784": {
      "stop_name": "Pointe du Lac",
      "stop_lat": "48.768752",
      "stop_lon": "2.464290",
      "zone_id": "3",
      "location_type": 0,
      "parent_station": "IDFM:69884",
      "line": "IDFM:C01378",
      "wheelchair": 2
    },
    "IDFM:22184": {
      "stop_name": "Daumesnil",
      "stop_lat": "48.839674",
      "stop_lon": "2.395574",
      "zone_id": "1",
      "location_type": 0,
      "parent_station": "IDFM:71614",
      "line": "IDFM:C01378",
      "wheelchair": 2
    },
    "IDFM:22205": {
      "stop_name": "Montgallet",
      "stop_lat": "48.844064",
      "stop_lon": "2.390522",
      "zone_id": "1",
      "location_type": 0,
      "parent_station": "IDFM:71631",
      "line": "IDFM:C01378",
      "wheelchair": 2
    },
    "IDFM:22098": {
      "stop_name": "Reuilly - Diderot",
      "stop_lat": "48.847213",
      "stop_lon": "2.387201",
      "zone_id": "1",
      "location_type": 0,
      "parent_station": "IDFM:71654",
      "line": "IDFM:C01378",
      "wheelchair": 2
    },
    "IDFM:22204": {
      "stop_name": "Faidherbe - Chaligny",
      "stop_lat": "48.850201",
      "stop_lon": "2.384072",
      "zone_id": "1",
      "location_type": 0,
      "parent_station": "IDFM:74001",
      "line": "IDFM:C01378",
      "wheelchair": 2
    },
    "IDFM:22203": {
      "stop_name": "Ledru-Rollin",
      "stop_lat": "48.851338",
      "stop_lon": "2.376141",
      "zone_id": "1",
      "location_type": 0,
      "parent_station": "IDFM:71693",
      "line": "IDFM:C01378",
      "wheelchair": 2
    },
    "IDFM:463000": {
      "stop_name": "Bastille",
      "stop_lat": "48.853485",
      "stop_lon": "2.369652",
      "zone_id": "1",
      "location_type": 0,
      "parent_station": "IDFM:463564",
      "line": "IDFM:C01378",
      "wheelchair": 2
    },
    "IDFM:22202": {
      "stop_name": "Chemin Vert",
      "stop_lat": "48.857106",
      "stop_lon": "2.368222",
      "zone_id": "1",
      "location_type": 0,
      "parent_station": "IDFM:73622",
      "line": "IDFM:C01378",
      "wheelchair": 2
    },
    "IDFM:22201": {
      "stop_name": "Saint-Sébastien - Froissart",
      "stop_lat": "48.860987",
      "stop_lon": "2.367370",
      "zone_id": "1",
      "location_type": 0,
      "parent_station": "IDFM:71777",
      "line": "IDFM:C01378",
      "wheelchair": 2
    },
    "IDFM:22200": {
      "stop_name": "Filles du Calvaire",
      "stop_lat": "48.863088",
      "stop_lon": "2.366827",
      "zone_id": "1",
      "location_type": 0,
      "parent_station": "IDFM:71277",
      "line": "IDFM:C01378",
      "wheelchair": 2
    },
    "IDFM:22199": {
      "stop_name": "République",
      "stop_lat": "48.867485",
      "stop_lon": "2.363256",
      "zone_id": "1",
      "location_type": 0,
      "parent_station": "IDFM:71311",
      "line": "IDFM:C01378",
      "wheelchair": 2
    },
    "IDFM:463312": {
      "stop_name": "Strasbourg - Saint-Denis",
      "stop_lat": "48.869467",
      "stop_lon": "2.353797",
      "zone_id": "1",
      "location_type": 0,
      "parent_station": "IDFM:73633",
      "line": "IDFM:C01378",
      "wheelchair": 2
    },
    "IDFM:22198": {
      "stop_name": "Bonne Nouvelle",
      "stop_lat": "48.870635",
      "stop_lon": "2.348576",
      "zone_id": "1",
      "location_type": 0,
      "parent_station": "IDFM:71320",
      "line": "IDFM:C01378",
      "wheelchair": 2
    },
    "IDFM:463058": {
      "stop_name": "Grands Boulevards",
      "stop_lat": "48.871602",
      "stop_lon": "2.342892",
      "zone_id": "1",
      "location_type": 0,
      "parent_station": "IDFM:71326",
      "line": "IDFM:C01378",
      "wheelchair": 2
    },
    "IDFM:22196": {
      "stop_name": "Richelieu - Drouot",
      "stop_lat": "48.871739",
      "stop_lon": "2.338419",
      "zone_id": "1",
      "location_type": 0,
      "parent_station": "IDFM:71330",
      "line": "IDFM:C01378",
      "wheelchair": 2
    },
    "IDFM:463244": {
      "stop_name": "Opéra",
      "stop_lat": "48.870665",
      "stop_lon": "2.332094",
      "zone_id": "1",
      "location_type": 0,
      "parent_station": "IDFM:71337",
      "line": "IDFM:C01378",
      "wheelchair": 2
    },
    "IDFM:463063": {
      "stop_name": "Madeleine",
      "stop_lat": "48.869646",
      "stop_lon": "2.325970",
      "zone_id": "1",
      "location_type": 0,
      "parent_station": "IDFM:71324",
      "line": "IDFM:C01378",
      "wheelchair": 2
    },
    "IDFM:463151": {
      "stop_name": "Concorde",
      "stop_lat": "48.866561",
      "stop_lon": "2.321915",
      "zone_id": "1",
      "location_type": 0,
      "parent_station": "IDFM:71298",
      "line": "IDFM:C01378",
      "wheelchair": 2
    },
    "IDFM:22193": {
      "stop_name": "Invalides",
      "stop_lat": "48.861092",
      "stop_lon": "2.314633",
      "zone_id": "1",
      "location_type": 0,
      "parent_station": "IDFM:71274",
      "line": "IDFM:C01378",
      "wheelchair": 2
    },
    "IDFM:463204": {
      "stop_name": "La Tour-Maubourg",
      "stop_lat": "48.857727",
      "stop_lon": "2.310474",
      "zone_id": "1",
      "location_type": 0,
      "parent_station": "IDFM:71242",
      "line": "IDFM:C01378",
      "wheelchair": 2
    },
    "IDFM:22191": {
      "stop_name": "École Militaire",
      "stop_lat": "48.854920",
      "stop_lon": "2.306346",
      "zone_id": "1",
      "location_type": 0,
      "parent_station": "IDFM:71224",
      "line": "IDFM:C01378",
      "wheelchair": 2
    },
    "IDFM:463201": {
      "stop_name": "La Motte-Picquet - Grenelle",
      "stop_lat": "48.849671",
      "stop_lon": "2.298488",
      "zone_id": "1",
      "location_type": 0,
      "parent_station": "IDFM:71199",
      "line": "IDFM:C01378",
      "wheelchair": 2
    },
    "IDFM:22190": {
      "stop_name": "Commerce",
      "stop_lat": "48.844638",
      "stop_lon": "2.293687",
      "zone_id": "1",
      "location_type": 0,
      "parent_station": "IDFM:71132",
      "line": "IDFM:C01378",
      "wheelchair": 2
    },
    "IDFM:463163": {
      "stop_name": "Félix Faure",
      "stop_lat": "48.842747",
      "stop_lon": "2.291752",
      "zone_id": "1",
      "location_type": 0,
      "parent_station": "IDFM:71137",
      "line": "IDFM:C01378",
      "wheelchair": 2
    },
    "IDFM:463135": {
      "stop_name": "Boucicaut",
      "stop_lat": "48.841122",
      "stop_lon": "2.287794",
      "zone_id": "1",
      "location_type": 0,
      "parent_station": "IDFM:412992",
      "line": "IDFM:C01378",
      "wheelchair": 2
    },
    "IDFM:463211": {
      "stop_name": "Lourmel",
      "stop_lat": "48.838786",
      "stop_lon": "2.282036",
      "zone_id": "1",
      "location_type": 0,
      "parent_station": "IDFM:71086",
      "line": "IDFM:C01378",
      "wheelchair": 2
    },
    "IDFM:463051": {
      "stop_name": "Balard",
      "stop_lat": "48.836668",
      "stop_lon": "2.278363",
      "zone_id": "1",
      "location_type": 0,
      "parent_station": "IDFM:71073",
      "line": "IDFM:C01378",
      "wheelchair": 2
    },
    "IDFM:463057": {
      "stop_name": "Pointe du Lac",
      "stop_lat": "48.768761",
      "stop_lon": "2.464317",
      "zone_id": "3",
      "location_type": 0,
      "parent_station": "IDFM:69884",
      "line": "IDFM:C01378",
      "wheelchair": 2
    },
    "IDFM:22213": {
      "stop_name": "Créteil - Préfecture",
      "stop_lat": "48.779757",
      "stop_lon": "2.459305",
      "zone_id": "2",
      "location_type": 0,
      "parent_station": "IDFM:70021",
      "line": "IDFM:C01378",
      "wheelchair": 2
    },
    "IDFM:463167": {
      "stop_name": "Créteil - Université",
      "stop_lat": "48.789943",
      "stop_lon": "2.450570",
      "zone_id": "2",
      "location_type": 0,
      "parent_station": "IDFM:70172",
      "line": "IDFM:C01378",
      "wheelchair": 2
    },
    "IDFM:463166": {
      "stop_name": "Créteil - L'Échat",
      "stop_lat": "48.796611",
      "stop_lon": "2.449424",
      "zone_id": "2",
      "location_type": 0,
      "parent_station": "IDFM:70269",
      "line": "IDFM:C01378",
      "wheelchair": 2
    },
    "IDFM:463015": {
      "stop_name": "Maisons-Alfort - Les Juilliottes",
      "stop_lat": "48.803219",
      "stop_lon": "2.445956",
      "zone_id": "2",
      "location_type": 0,
      "parent_station": "IDFM:70358",
      "line": "IDFM:C01378",
      "wheelchair": 2
    },
    "IDFM:463225": {
      "stop_name": "Maisons-Alfort - Stade",
      "stop_lat": "48.808977",
      "stop_lon": "2.434924",
      "zone_id": "2",
      "location_type": 0,
      "parent_station": "IDFM:70426",
      "line": "IDFM:C01378",
      "wheelchair": 2
    },
    "IDFM:463047": {
      "stop_name": "Ecole Vétérinaire de Maisons-Alfort",
      "stop_lat": "48.814836",
      "stop_lon": "2.422400",
      "zone_id": "2",
      "location_type": 0,
      "parent_station": "IDFM:70522",
      "line": "IDFM:C01378",
      "wheelchair": 2
    },
    "IDFM:463142": {
      "stop_name": "Charenton - Écoles",
      "stop_lat": "48.821481",
      "stop_lon": "2.413845",
      "zone_id": "2",
      "location_type": 0,
      "parent_station": "IDFM:70648",
      "line": "IDFM:C01378",
      "wheelchair": 2
    },
    "IDFM:22209": {
      "stop_name": "Liberté",
      "stop_lat": "48.826148",
      "stop_lon": "2.406491",
      "zone_id": "2",
      "location_type": 0,
      "parent_station": "IDFM:71558",
      "line": "IDFM:C01378",
      "wheelchair": 2
    },
    "IDFM:22208": {
      "stop_name": "Porte de Charenton",
      "stop_lat": "48.833449",
      "stop_lon": "2.402512",
      "zone_id": "1",
      "location_type": 0,
      "parent_station": "IDFM:71579",
      "line": "IDFM:C01378",
      "wheelchair": 2
    },
    "IDFM:463050": {
      "stop_name": "Porte Dorée",
      "stop_lat": "48.835017",
      "stop_lon": "2.405874",
      "zone_id": "1",
      "location_type": 0,
      "parent_station": "IDFM:71591",
      "line": "IDFM:C01378",
      "wheelchair": 2
    },
    "IDFM:463226": {
      "stop_name": "Michel Bizot",
      "stop_lat": "48.837077",
      "stop_lon": "2.402367",
      "zone_id": "1",
      "location_type": 0,
      "parent_station": "IDFM:71595",
      "line": "IDFM:C01378",
      "wheelchair": 2
    },
    "IDFM:463221": {
      "stop_name": "Mairie de Montreuil",
      "stop_lat": "48.862313",
      "stop_lon": "2.441439",
      "zone_id": "2",
      "location_type": 0,
      "parent_station": "IDFM:71785",
      "line": "IDFM:C01379",
      "wheelchair": 2
    },
    "IDFM:463176": {
      "stop_name": "Croix de Chavaux",
      "stop_lat": "48.857993",
      "stop_lon": "2.435855",
      "zone_id": "2",
      "location_type": 0,
      "parent_station": "IDFM:71756",
      "line": "IDFM:C01379",
      "wheelchair": 2
    },
    "IDFM:463053": {
      "stop_name": "Robespierre",
      "stop_lat": "48.855755",
      "stop_lon": "2.422945",
      "zone_id": "2",
      "location_type": 0,
      "parent_station": "IDFM:71725",
      "line": "IDFM:C01379",
      "wheelchair": 2
    },
    "IDFM:21913": {
      "stop_name": "Porte de Montreuil",
      "stop_lat": "48.853564",
      "stop_lon": "2.410704",
      "zone_id": "1",
      "location_type": 0,
      "parent_station": "IDFM:71710",
      "line": "IDFM:C01379",
      "wheelchair": 2
    },
    "IDFM:21936": {
      "stop_name": "Maraîchers",
      "stop_lat": "48.852731",
      "stop_lon": "2.406039",
      "zone_id": "1",
      "location_type": 0,
      "parent_station": "IDFM:71703",
      "line": "IDFM:C01379",
      "wheelchair": 2
    },
    "IDFM:25084": {
      "stop_name": "Buzenval",
      "stop_lat": "48.851762",
      "stop_lon": "2.401171",
      "zone_id": "1",
      "location_type": 0,
      "parent_station": "IDFM:479928",
      "line": "IDFM:C01379",
      "wheelchair": 2
    },
    "IDFM:462942": {
      "stop_name": "Nation",
      "stop_lat": "48.848980",
      "stop_lon": "2.395921",
      "zone_id": "1",
      "location_type": 0,
      "parent_station": "IDFM:71673",
      "line": "IDFM:C01379",
      "wheelchair": 2
    },
    "IDFM:463298": {
      "stop_name": "Rue des Boulets",
      "stop_lat": "48.852369",
      "stop_lon": "2.389430",
      "zone_id": "1",
      "location_type": 0,
      "parent_station": "IDFM:71694",
      "line": "IDFM:C01379",
      "wheelchair": 2
    },
    "IDFM:21934": {
      "stop_name": "Charonne",
      "stop_lat": "48.855007",
      "stop_lon": "2.384888",
      "zone_id": "1",
      "location_type": 0,
      "parent_station": "IDFM:73647",
      "line": "IDFM:C01379",
      "wheelchair": 2
    },
    "IDFM:21916": {
      "stop_name": "Voltaire",
      "stop_lat": "48.857735",
      "stop_lon": "2.380208",
      "zone_id": "1",
      "location_type": 0,
      "parent_station": "IDFM:71750",
      "line": "IDFM:C01379",
      "wheelchair": 2
    },
    "IDFM:463299": {
      "stop_name": "Saint-Ambroise",
      "stop_lat": "48.861480",
      "stop_lon": "2.373996",
      "zone_id": "1",
      "location_type": 0,
      "parent_station": "IDFM:71781",
      "line": "IDFM:C01379",
      "wheelchair": 2
    },
    "IDFM:463054": {
      "stop_name": "Oberkampf",
      "stop_lat": "48.864872",
      "stop_lon": "2.368224",
      "zone_id": "1",
      "location_type": 0,
      "parent_station": "IDFM:71803",
      "line": "IDFM:C01379",
      "wheelchair": 2
    },
    "IDFM:462963": {
      "stop_name": "République",
      "stop_lat": "48.867512",
      "stop_lon": "2.363302",
      "zone_id": "1",
      "location_type": 0,
      "parent_station": "IDFM:71311",
      "line": "IDFM:C01379",
      "wheelchair": 2
    },
    "IDFM:463264": {
      "stop_name": "Strasbourg - Saint-Denis",
      "stop_lat": "48.869503",
      "stop_lon": "2.353822",
      "zone_id": "1",
      "location_type": 0,
      "parent_station": "IDFM:73633",
      "line": "IDFM:C01379",
      "wheelchair": 2
    },
    "IDFM:21933": {
      "stop_name": "Bonne Nouvelle",
      "stop_lat": "48.870643",
      "stop_lon": "2.348494",
      "zone_id": "1",
      "location_type": 0,
      "parent_station": "IDFM:71320",
      "line": "IDFM:C01379",
      "wheelchair": 2
    },
    "IDFM:463049": {
      "stop_name": "Grands Boulevards",
      "stop_lat": "48.871559",
      "stop_lon": "2.343220",
      "zone_id": "1",
      "location_type": 0,
      "parent_station": "IDFM:71326",
      "line": "IDFM:C01379",
      "wheelchair": 2
    },
    "IDFM:463036": {
      "stop_name": "Richelieu - Drouot",
      "stop_lat": "48.872239",
      "stop_lon": "2.338616",
      "zone_id": "1",
      "location_type": 0,
      "parent_station": "IDFM:71330",
      "line": "IDFM:C01379",
      "wheelchair": 2
    },
    "IDFM:21932": {
      "stop_name": "Chaussée d'Antin - La Fayette",
      "stop_lat": "48.872884",
      "stop_lon": "2.334001",
      "zone_id": "1",
      "location_type": 0,
      "parent_station": "IDFM:73689",
      "line": "IDFM:C01379",
      "wheelchair": 2
    },
    "IDFM:463188": {
      "stop_name": "Havre-Caumartin",
      "stop_lat": "48.873757",
      "stop_lon": "2.327677",
      "zone_id": "1",
      "location_type": 0,
      "parent_station": "IDFM:482368",
      "line": "IDFM:C01379",
      "wheelchair": 2
    },
    "IDFM:463300": {
      "stop_name": "Saint-Augustin",
      "stop_lat": "48.874632",
      "stop_lon": "2.321032",
      "zone_id": "1",
      "location_type": 0,
      "parent_station": "IDFM:73690",
      "line": "IDFM:C01379",
      "wheelchair": 2
    },
    "IDFM:21924": {
      "stop_name": "Miromesnil",
      "stop_lat": "48.873773",
      "stop_lon": "2.314643",
      "zone_id": "1",
      "location_type": 0,
      "parent_station": "IDFM:71346",
      "line": "IDFM:C01379",
      "wheelchair": 2
    },
    "IDFM:21912": {
      "stop_name": "Saint-Philippe du Roule",
      "stop_lat": "48.872154",
      "stop_lon": "2.310002",
      "zone_id": "1",
      "location_type": 0,
      "parent_station": "IDFM:71334",
      "line": "IDFM:C01379",
      "wheelchair": 2
    },
    "IDFM:21931": {
      "stop_name": "Franklin D. Roosevelt",
      "stop_lat": "48.868725",
      "stop_lon": "2.309488",
      "zone_id": "1",
      "location_type": 0,
      "parent_station": "IDFM:71318",
      "line": "IDFM:C01379",
      "wheelchair": 2
    },
    "IDFM:21935": {
      "stop_name": "Alma - Marceau",
      "stop_lat": "48.864728",
      "stop_lon": "2.301131",
      "zone_id": "1",
      "location_type": 0,
      "parent_station": "IDFM:71290",
      "line": "IDFM:C01379",
      "wheelchair": 2
    },
    "IDFM:463190": {
      "stop_name": "Iéna",
      "stop_lat": "48.864780",
      "stop_lon": "2.293864",
      "zone_id": "1",
      "location_type": 0,
      "parent_station": "IDFM:71294",
      "line": "IDFM:C01379",
      "wheelchair": 2
    },
    "IDFM:463318": {
      "stop_name": "Trocadéro",
      "stop_lat": "48.863088",
      "stop_lon": "2.286826",
      "zone_id": "1",
      "location_type": 0,
      "parent_station": "IDFM:71285",
      "line": "IDFM:C01379",
      "wheelchair": 2
    },
    "IDFM:463055": {
      "stop_name": "Rue de la Pompe",
      "stop_lat": "48.864037",
      "stop_lon": "2.277916",
      "zone_id": "1",
      "location_type": 0,
      "parent_station": "IDFM:71292",
      "line": "IDFM:C01379",
      "wheelchair": 2
    },
    "IDFM:21929": {
      "stop_name": "La Muette",
      "stop_lat": "48.858092",
      "stop_lon": "2.274096",
      "zone_id": "1",
      "location_type": 0,
      "parent_station": "IDFM:474150",
      "line": "IDFM:C01379",
      "wheelchair": 2
    },
    "IDFM:463290": {
      "stop_name": "Ranelagh",
      "stop_lat": "48.855504",
      "stop_lon": "2.269948",
      "zone_id": "1",
      "location_type": 0,
      "parent_station": "IDFM:71243",
      "line": "IDFM:C01379",
      "wheelchair": 2
    },
    "IDFM:463038": {
      "stop_name": "Jasmin",
      "stop_lat": "48.852433",
      "stop_lon": "2.267933",
      "zone_id": "1",
      "location_type": 0,
      "parent_station": "IDFM:73657",
      "line": "IDFM:C01379",
      "wheelchair": 2
    },
    "IDFM:463238": {
      "stop_name": "Michel-Ange - Auteuil",
      "stop_lat": "48.847709",
      "stop_lon": "2.263809",
      "zone_id": "1",
      "location_type": 0,
      "parent_station": "IDFM:71206",
      "line": "IDFM:C01379",
      "wheelchair": 2
    },
    "IDFM:21923": {
      "stop_name": "Michel-Ange - Molitor",
      "stop_lat": "48.844911",
      "stop_lon": "2.261512",
      "zone_id": "1",
      "location_type": 0,
      "parent_station": "IDFM:73658",
      "line": "IDFM:C01379",
      "wheelchair": 2
    },
    "IDFM:462956": {
      "stop_name": "Exelmans",
      "stop_lat": "48.842624",
      "stop_lon": "2.259675",
      "zone_id": "1",
      "location_type": 0,
      "parent_station": "IDFM:71124",
      "line": "IDFM:C01379",
      "wheelchair": 2
    },
    "IDFM:463259": {
      "stop_name": "Porte de Saint-Cloud",
      "stop_lat": "48.837997",
      "stop_lon": "2.256789",
      "zone_id": "1",
      "location_type": 0,
      "parent_station": "IDFM:71084",
      "line": "IDFM:C01379",
      "wheelchair": 2
    },
    "IDFM:21940": {
      "stop_name": "Marcel Sembat",
      "stop_lat": "48.833808",
      "stop_lon": "2.243468",
      "zone_id": "2",
      "location_type": 0,
      "parent_station": "IDFM:71054",
      "line": "IDFM:C01379",
      "wheelchair": 2
    },
    "IDFM:463035": {
      "stop_name": "Billancourt",
      "stop_lat": "48.831920",
      "stop_lon": "2.237891",
      "zone_id": "2",
      "location_type": 0,
      "parent_station": "IDFM:71034",
      "line": "IDFM:C01379",
      "wheelchair": 2
    },
    "IDFM:463233": {
      "stop_name": "Pont de Sèvres",
      "stop_lat": "48.829669",
      "stop_lon": "2.230505",
      "zone_id": "2",
      "location_type": 0,
      "parent_station": "IDFM:70698",
      "line": "IDFM:C01379",
      "wheelchair": 2
    },
    "IDFM:21938": {
      "stop_name": "Pont de Sèvres",
      "stop_lat": "48.829687",
      "stop_lon": "2.230519",
      "zone_id": "2",
      "location_type": 0,
      "parent_station": "IDFM:70698",
      "line": "IDFM:C01379",
      "wheelchair": 2
    },
    "IDFM:21939": {
      "stop_name": "Billancourt",
      "stop_lat": "48.831831",
      "stop_lon": "2.237966",
      "zone_id": "2",
      "location_type": 0,
      "parent_station": "IDFM:71034",
      "line": "IDFM:C01379",
      "wheelchair": 2
    },
    "IDFM:462914": {
      "stop_name": "Marcel Sembat",
      "stop_lat": "48.833593",
      "stop_lon": "2.243583",
      "zone_id": "2",
      "location_type": 0,
      "parent_station": "IDFM:71054",
      "line": "IDFM:C01379",
      "wheelchair": 2
    },
    "IDFM:21914": {
      "stop_name": "Porte de Saint-Cloud",
      "stop_lat": "48.837958",
      "stop_lon": "2.257046",
      "zone_id": "1",
      "location_type": 0,
      "parent_station": "IDFM:71084",
      "line": "IDFM:C01379",
      "wheelchair": 2
    },
    "IDFM:21930": {
      "stop_name": "Exelmans",
      "stop_lat": "48.842580",
      "stop_lon": "2.259801",
      "zone_id": "1",
      "location_type": 0,
      "parent_station": "IDFM:71124",
      "line": "IDFM:C01379",
      "wheelchair": 2
    },
    "IDFM:463239": {
      "stop_name": "Michel-Ange - Molitor",
      "stop_lat": "48.844880",
      "stop_lon": "2.261632",
      "zone_id": "1",
      "location_type": 0,
      "parent_station": "IDFM:73658",
      "line": "IDFM:C01379",
      "wheelchair": 2
    },
    "IDFM:21922": {
      "stop_name": "Michel-Ange - Auteuil",
      "stop_lat": "48.847678",
      "stop_lon": "2.263939",
      "zone_id": "1",
      "location_type": 0,
      "parent_station": "IDFM:71206",
      "line": "IDFM:C01379",
      "wheelchair": 2
    },
    "IDFM:21928": {
      "stop_name": "Jasmin",
      "stop_lat": "48.852462",
      "stop_lon": "2.268219",
      "zone_id": "1",
      "location_type": 0,
      "parent_station": "IDFM:73657",
      "line": "IDFM:C01379",
      "wheelchair": 2
    },
    "IDFM:21915": {
      "stop_name": "Ranelagh",
      "stop_lat": "48.855306",
      "stop_lon": "2.270033",
      "zone_id": "1",
      "location_type": 0,
      "parent_station": "IDFM:71243",
      "line": "IDFM:C01379",
      "wheelchair": 2
    },
    "IDFM:463203": {
      "stop_name": "La Muette",
      "stop_lat": "48.858092",
      "stop_lon": "2.274096",
      "zone_id": "1",
      "location_type": 0,
      "parent_station": "IDFM:474150",
      "line": "IDFM:C01379",
      "wheelchair": 2
    },
    "IDFM:21908": {
      "stop_name": "Rue de la Pompe",
      "stop_lat": "48.863952",
      "stop_lon": "2.277886",
      "zone_id": "1",
      "location_type": 0,
      "parent_station": "IDFM:71292",
      "line": "IDFM:C01379",
      "wheelchair": 2
    },
    "IDFM:21917": {
      "stop_name": "Trocadéro",
      "stop_lat": "48.863088",
      "stop_lon": "2.286840",
      "zone_id": "1",
      "location_type": 0,
      "parent_station": "IDFM:71285",
      "line": "IDFM:C01379",
      "wheelchair": 2
    },
    "IDFM:21927": {
      "stop_name": "Iéna",
      "stop_lat": "48.864686",
      "stop_lon": "2.293906",
      "zone_id": "1",
      "location_type": 0,
      "parent_station": "IDFM:71294",
      "line": "IDFM:C01379",
      "wheelchair": 2
    },
    "IDFM:463052": {
      "stop_name": "Alma - Marceau",
      "stop_lat": "48.864647",
      "stop_lon": "2.301104",
      "zone_id": "1",
      "location_type": 0,
      "parent_station": "IDFM:71290",
      "line": "IDFM:C01379",
      "wheelchair": 2
    },
    "IDFM:463180": {
      "stop_name": "Franklin D. Roosevelt",
      "stop_lat": "48.868662",
      "stop_lon": "2.309574",
      "zone_id": "1",
      "location_type": 0,
      "parent_station": "IDFM:71318",
      "line": "IDFM:C01379",
      "wheelchair": 2
    },
    "IDFM:462915": {
      "stop_name": "Saint-Philippe du Roule",
      "stop_lat": "48.872155",
      "stop_lon": "2.310137",
      "zone_id": "1",
      "location_type": 0,
      "parent_station": "IDFM:71334",
      "line": "IDFM:C01379",
      "wheelchair": 2
    },
    "IDFM:462957": {
      "stop_name": "Miromesnil",
      "stop_lat": "48.873692",
      "stop_lon": "2.314677",
      "zone_id": "1",
      "location_type": 0,
      "parent_station": "IDFM:71346",
      "line": "IDFM:C01379",
      "wheelchair": 2
    },
    "IDFM:21911": {
      "stop_name": "Saint-Augustin",
      "stop_lat": "48.874547",
      "stop_lon": "2.321014",
      "zone_id": "1",
      "location_type": 0,
      "parent_station": "IDFM:73690",
      "line": "IDFM:C01379",
      "wheelchair": 2
    },
    "IDFM:21926": {
      "stop_name": "Havre-Caumartin",
      "stop_lat": "48.873667",
      "stop_lon": "2.327651",
      "zone_id": "1",
      "location_type": 0,
      "parent_station": "IDFM:482368",
      "line": "IDFM:C01379",
      "wheelchair": 2
    },
    "IDFM:463144": {
      "stop_name": "Chaussée d'Antin - La Fayette",
      "stop_lat": "48.872807",
      "stop_lon": "2.333970",
      "zone_id": "1",
      "location_type": 0,
      "parent_station": "IDFM:73689",
      "line": "IDFM:C01379",
      "wheelchair": 2
    },
    "IDFM:21921": {
      "stop_name": "Richelieu - Drouot",
      "stop_lat": "48.872136",
      "stop_lon": "2.338591",
      "zone_id": "1",
      "location_type": 0,
      "parent_station": "IDFM:71330",
      "line": "IDFM:C01379",
      "wheelchair": 2
    },
    "IDFM:21909": {
      "stop_name": "Grands Boulevards",
      "stop_lat": "48.871415",
      "stop_lon": "2.343168",
      "zone_id": "1",
      "location_type": 0,
      "parent_station": "IDFM:71326",
      "line": "IDFM:C01379",
      "wheelchair": 2
    },
    "IDFM:463133": {
      "stop_name": "Bonne Nouvelle",
      "stop_lat": "48.870490",
      "stop_lon": "2.348429",
      "zone_id": "1",
      "location_type": 0,
      "parent_station": "IDFM:71320",
      "line": "IDFM:C01379",
      "wheelchair": 2
    },
    "IDFM:21920": {
      "stop_name": "Strasbourg - Saint-Denis",
      "stop_lat": "48.869350",
      "stop_lon": "2.353732",
      "zone_id": "1",
      "location_type": 0,
      "parent_station": "IDFM:73633",
      "line": "IDFM:C01379",
      "wheelchair": 2
    },
    "IDFM:21918": {
      "stop_name": "République",
      "stop_lat": "48.867394",
      "stop_lon": "2.363121",
      "zone_id": "1",
      "location_type": 0,
      "parent_station": "IDFM:71311",
      "line": "IDFM:C01379",
      "wheelchair": 2
    },
    "IDFM:21925": {
      "stop_name": "Oberkampf",
      "stop_lat": "48.864777",
      "stop_lon": "2.368156",
      "zone_id": "1",
      "location_type": 0,
      "parent_station": "IDFM:71803",
      "line": "IDFM:C01379",
      "wheelchair": 2
    },
    "IDFM:21910": {
      "stop_name": "Saint-Ambroise",
      "stop_lat": "48.861417",
      "stop_lon": "2.373881",
      "zone_id": "1",
      "location_type": 0,
      "parent_station": "IDFM:71781",
      "line": "IDFM:C01379",
      "wheelchair": 2
    },
    "IDFM:463325": {
      "stop_name": "Voltaire",
      "stop_lat": "48.857662",
      "stop_lon": "2.380032",
      "zone_id": "1",
      "location_type": 0,
      "parent_station": "IDFM:71750",
      "line": "IDFM:C01379",
      "wheelchair": 2
    },
    "IDFM:463143": {
      "stop_name": "Charonne",
      "stop_lat": "48.854939",
      "stop_lon": "2.384782",
      "zone_id": "1",
      "location_type": 0,
      "parent_station": "IDFM:73647",
      "line": "IDFM:C01379",
      "wheelchair": 2
    },
    "IDFM:22442": {
      "stop_name": "Rue des Boulets",
      "stop_lat": "48.852214",
      "stop_lon": "2.389105",
      "zone_id": "1",
      "location_type": 0,
      "parent_station": "IDFM:71694",
      "line": "IDFM:C01379",
      "wheelchair": 2
    },
    "IDFM:21919": {
      "stop_name": "Nation",
      "stop_lat": "48.848885",
      "stop_lon": "2.395944",
      "zone_id": "1",
      "location_type": 0,
      "parent_station": "IDFM:71673",
      "line": "IDFM:C01379",
      "wheelchair": 2
    },
    "IDFM:463039": {
      "stop_name": "Buzenval",
      "stop_lat": "48.851762",
      "stop_lon": "2.401171",
      "zone_id": "1",
      "location_type": 0,
      "parent_station": "IDFM:479928",
      "line": "IDFM:C01379",
      "wheelchair": 2
    },
    "IDFM:463215": {
      "stop_name": "Maraîchers",
      "stop_lat": "48.852650",
      "stop_lon": "2.406049",
      "zone_id": "1",
      "location_type": 0,
      "parent_station": "IDFM:71703",
      "line": "IDFM:C01379",
      "wheelchair": 2
    },
    "IDFM:463279": {
      "stop_name": "Porte de Montreuil",
      "stop_lat": "48.853483",
      "stop_lon": "2.410718",
      "zone_id": "1",
      "location_type": 0,
      "parent_station": "IDFM:71710",
      "line": "IDFM:C01379",
      "wheelchair": 2
    },
    "IDFM:21942": {
      "stop_name": "Robespierre",
      "stop_lat": "48.855674",
      "stop_lon": "2.422973",
      "zone_id": "2",
      "location_type": 0,
      "parent_station": "IDFM:71725",
      "line": "IDFM:C01379",
      "wheelchair": 2
    },
    "IDFM:21943": {
      "stop_name": "Croix de Chavaux",
      "stop_lat": "48.857993",
      "stop_lon": "2.435855",
      "zone_id": "2",
      "location_type": 0,
      "parent_station": "IDFM:71756",
      "line": "IDFM:C01379",
      "wheelchair": 2
    },
    "IDFM:21941": {
      "stop_name": "Mairie de Montreuil",
      "stop_lat": "48.862274",
      "stop_lon": "2.441819",
      "zone_id": "2",
      "location_type": 0,
      "parent_station": "IDFM:71785",
      "line": "IDFM:C01379",
      "wheelchair": 2
    },
    "IDFM:21955": {
      "stop_name": "Bibliothèque François Mitterrand",
      "stop_lat": "48.830006",
      "stop_lon": "2.376424",
      "zone_id": "1",
      "location_type": 0,
      "parent_station": "IDFM:71572",
      "line": "IDFM:C01384",
      "wheelchair": 1
    },
    "IDFM:21954": {
      "stop_name": "Olympiades",
      "stop_lat": "48.827123",
      "stop_lon": "2.366923",
      "zone_id": "1",
      "location_type": 0,
      "parent_station": "IDFM:71557",
      "line": "IDFM:C01384",
      "wheelchair": 1
    },
    "IDFM:21959": {
      "stop_name": "Châtelet",
      "stop_lat": "48.859515",
      "stop_lon": "2.346275",
      "zone_id": "1",
      "location_type": 0,
      "parent_station": "IDFM:71264",
      "line": "IDFM:C01384",
      "wheelchair": 1
    },
    "IDFM:463046": {
      "stop_name": "Gare de Lyon",
      "stop_lat": "48.844676",
      "stop_lon": "2.373101",
      "zone_id": "1",
      "location_type": 0,
      "parent_station": "IDFM:73626",
      "line": "IDFM:C01384",
      "wheelchair": 2
    },
    "IDFM:463129": {
      "stop_name": "Bercy",
      "stop_lat": "48.840102",
      "stop_lon": "2.379062",
      "zone_id": "1",
      "location_type": 0,
      "parent_station": "IDFM:71607",
      "line": "IDFM:C01384",
      "wheelchair": 1
    },
    "IDFM:21956": {
      "stop_name": "Cour Saint-Emilion",
      "stop_lat": "48.833350",
      "stop_lon": "2.386465",
      "zone_id": "1",
      "location_type": 0,
      "parent_station": "IDFM:71576",
      "line": "IDFM:C01384",
      "wheelchair": 1
    },
    "IDFM:480290": {
      "stop_name": "Mairie de Saint-Ouen",
      "stop_lat": "48.911705",
      "stop_lon": "2.333436",
      "zone_id": "2",
      "location_type": 0,
      "parent_station": "IDFM:72168",
      "line": "IDFM:C01384",
      "wheelchair": 1
    },
    "IDFM:480288": {
      "stop_name": "Saint-Ouen",
      "stop_lat": "48.905214",
      "stop_lon": "2.322660",
      "zone_id": "2",
      "location_type": 0,
      "parent_station": "IDFM:72126",
      "line": "IDFM:C01384",
      "wheelchair": 1
    },
    "IDFM:480541": {
      "stop_name": "Porte de Clichy",
      "stop_lat": "48.894289",
      "stop_lon": "2.313432",
      "zone_id": "1",
      "location_type": 0,
      "parent_station": "IDFM:71545",
      "line": "IDFM:C01384",
      "wheelchair": 1
    },
    "IDFM:480286": {
      "stop_name": "Pont Cardinet",
      "stop_lat": "48.888102",
      "stop_lon": "2.315191",
      "zone_id": "1",
      "location_type": 0,
      "parent_station": "IDFM:71475",
      "line": "IDFM:C01384",
      "wheelchair": 1
    },
    "IDFM:462972": {
      "stop_name": "Saint-Lazare",
      "stop_lat": "48.875661",
      "stop_lon": "2.324026",
      "zone_id": "1",
      "location_type": 0,
      "parent_station": "IDFM:71370",
      "line": "IDFM:C01384",
      "wheelchair": 1
    },
    "IDFM:21961": {
      "stop_name": "Madeleine",
      "stop_lat": "48.870545",
      "stop_lon": "2.325810",
      "zone_id": "1",
      "location_type": 0,
      "parent_station": "IDFM:71324",
      "line": "IDFM:C01384",
      "wheelchair": 1
    },
    "IDFM:21960": {
      "stop_name": "Pyramides",
      "stop_lat": "48.865756",
      "stop_lon": "2.334624",
      "zone_id": "1",
      "location_type": 0,
      "parent_station": "IDFM:73788",
      "line": "IDFM:C01384",
      "wheelchair": 1
    },
    "IDFM:463045": {
      "stop_name": "Olympiades",
      "stop_lat": "48.826944",
      "stop_lon": "2.367034",
      "zone_id": "1",
      "location_type": 0,
      "parent_station": "IDFM:71557",
      "line": "IDFM:C01384",
      "wheelchair": 1
    },
    "IDFM:463112": {
      "stop_name": "Bibliothèque François Mitterrand",
      "stop_lat": "48.829926",
      "stop_lon": "2.376487",
      "zone_id": "1",
      "location_type": 0,
      "parent_station": "IDFM:71572",
      "line": "IDFM:C01384",
      "wheelchair": 1
    },
    "IDFM:463165": {
      "stop_name": "Cour Saint-Emilion",
      "stop_lat": "48.833319",
      "stop_lon": "2.386618",
      "zone_id": "1",
      "location_type": 0,
      "parent_station": "IDFM:71576",
      "line": "IDFM:C01384",
      "wheelchair": 1
    },
    "IDFM:21957": {
      "stop_name": "Bercy",
      "stop_lat": "48.840148",
      "stop_lon": "2.379191",
      "zone_id": "1",
      "location_type": 0,
      "parent_station": "IDFM:71607",
      "line": "IDFM:C01384",
      "wheelchair": 1
    },
    "IDFM:21958": {
      "stop_name": "Gare de Lyon",
      "stop_lat": "48.844250",
      "stop_lon": "2.372520",
      "zone_id": "1",
      "location_type": 0,
      "parent_station": "IDFM:73626",
      "line": "IDFM:C01384",
      "wheelchair": 2
    },
    "IDFM:463159": {
      "stop_name": "Châtelet",
      "stop_lat": "48.859557",
      "stop_lon": "2.346412",
      "zone_id": "1",
      "location_type": 0,
      "parent_station": "IDFM:71264",
      "line": "IDFM:C01384",
      "wheelchair": 1
    },
    "IDFM:463284": {
      "stop_name": "Pyramides",
      "stop_lat": "48.865806",
      "stop_lon": "2.334739",
      "zone_id": "1",
      "location_type": 0,
      "parent_station": "IDFM:73788",
      "line": "IDFM:C01384",
      "wheelchair": 1
    },
    "IDFM:463064": {
      "stop_name": "Madeleine",
      "stop_lat": "48.870630",
      "stop_lon": "2.325876",
      "zone_id": "1",
      "location_type": 0,
      "parent_station": "IDFM:71324",
      "line": "IDFM:C01384",
      "wheelchair": 1
    },
    "IDFM:21962": {
      "stop_name": "Saint-Lazare",
      "stop_lat": "48.875607",
      "stop_lon": "2.324122",
      "zone_id": "1",
      "location_type": 0,
      "parent_station": "IDFM:71370",
      "line": "IDFM:C01384",
      "wheelchair": 1
    },
    "IDFM:480340": {
      "stop_name": "Pont Cardinet",
      "stop_lat": "48.888103",
      "stop_lon": "2.315368",
      "zone_id": "1",
      "location_type": 0,
      "parent_station": "IDFM:71475",
      "line": "IDFM:C01384",
      "wheelchair": 1
    },
    "IDFM:480531": {
      "stop_name": "Porte de Clichy",
      "stop_lat": "48.894333",
      "stop_lon": "2.313404",
      "zone_id": "1",
      "location_type": 0,
      "parent_station": "IDFM:71545",
      "line": "IDFM:C01384",
      "wheelchair": 1
    },
    "IDFM:480341": {
      "stop_name": "Saint-Ouen",
      "stop_lat": "48.905170",
      "stop_lon": "2.322756",
      "zone_id": "2",
      "location_type": 0,
      "parent_station": "IDFM:72126",
      "line": "IDFM:C01384",
      "wheelchair": 1
    },
    "IDFM:480330": {
      "stop_name": "Mairie de Saint-Ouen",
      "stop_lat": "48.911642",
      "stop_lon": "2.333546",
      "zone_id": "2",
      "location_type": 0,
      "parent_station": "IDFM:72168",
      "line": "IDFM:C01384",
      "wheelchair": 1
    },
    "IDFM:22006": {
      "stop_name": "Place d'Italie",
      "stop_lat": "48.830966",
      "stop_lon": "2.355597",
      "zone_id": "1",
      "location_type": 0,
      "parent_station": "IDFM:71033",
      "line": "IDFM:C01375",
      "wheelchair": 2
    },
    "IDFM:463020": {
      "stop_name": "Campo-Formio",
      "stop_lat": "48.835543",
      "stop_lon": "2.358742",
      "zone_id": "1",
      "location_type": 0,
      "parent_station": "IDFM:71063",
      "line": "IDFM:C01375",
      "wheelchair": 2
    },
    "IDFM:463097": {
      "stop_name": "Saint-Marcel",
      "stop_lat": "48.838477",
      "stop_lon": "2.360818",
      "zone_id": "1",
      "location_type": 0,
      "parent_station": "IDFM:71092",
      "line": "IDFM:C01375",
      "wheelchair": 2
    },
    "IDFM:21981": {
      "stop_name": "Gare d'Austerlitz",
      "stop_lat": "48.842298",
      "stop_lon": "2.365608",
      "zone_id": "1",
      "location_type": 0,
      "parent_station": "IDFM:71135",
      "line": "IDFM:C01375",
      "wheelchair": 2
    },
    "IDFM:22004": {
      "stop_name": "Quai de la Rapée",
      "stop_lat": "48.846491",
      "stop_lon": "2.365993",
      "zone_id": "1",
      "location_type": 0,
      "parent_station": "IDFM:71637",
      "line": "IDFM:C01375",
      "wheelchair": 2
    },
    "IDFM:22010": {
      "stop_name": "Bastille",
      "stop_lat": "48.853287",
      "stop_lon": "2.368922",
      "zone_id": "1",
      "location_type": 0,
      "parent_station": "IDFM:463564",
      "line": "IDFM:C01375",
      "wheelchair": 2
    },
    "IDFM:463138": {
      "stop_name": "Bréguet-Sabin",
      "stop_lat": "48.856218",
      "stop_lon": "2.370335",
      "zone_id": "1",
      "location_type": 0,
      "parent_station": "IDFM:73621",
      "line": "IDFM:C01375",
      "wheelchair": 2
    },
    "IDFM:463096": {
      "stop_name": "Richard-Lenoir",
      "stop_lat": "48.859860",
      "stop_lon": "2.371950",
      "zone_id": "1",
      "location_type": 0,
      "parent_station": "IDFM:73648",
      "line": "IDFM:C01375",
      "wheelchair": 2
    },
    "IDFM:463059": {
      "stop_name": "Oberkampf",
      "stop_lat": "48.864645",
      "stop_lon": "2.368605",
      "zone_id": "1",
      "location_type": 0,
      "parent_station": "IDFM:71803",
      "line": "IDFM:C01375",
      "wheelchair": 2
    },
    "IDFM:462961": {
      "stop_name": "République",
      "stop_lat": "48.867733",
      "stop_lon": "2.364193",
      "zone_id": "1",
      "location_type": 0,
      "parent_station": "IDFM:71311",
      "line": "IDFM:C01375",
      "wheelchair": 2
    },
    "IDFM:22011": {
      "stop_name": "Jacques Bonsergent",
      "stop_lat": "48.870666",
      "stop_lon": "2.361132",
      "zone_id": "1",
      "location_type": 0,
      "parent_station": "IDFM:71322",
      "line": "IDFM:C01375",
      "wheelchair": 2
    },
    "IDFM:22013": {
      "stop_name": "Gare de l'Est",
      "stop_lat": "48.876163",
      "stop_lon": "2.358065",
      "zone_id": "1",
      "location_type": 0,
      "parent_station": "IDFM:71359",
      "line": "IDFM:C01375",
      "wheelchair": 2
    },
    "IDFM:463182": {
      "stop_name": "Gare du Nord",
      "stop_lat": "48.879680",
      "stop_lon": "2.357343",
      "zone_id": "1",
      "location_type": 0,
      "parent_station": "IDFM:71410",
      "line": "IDFM:C01375",
      "wheelchair": 2
    },
    "IDFM:22001": {
      "stop_name": "Stalingrad",
      "stop_lat": "48.884145",
      "stop_lon": "2.367348",
      "zone_id": "1",
      "location_type": 0,
      "parent_station": "IDFM:71961",
      "line": "IDFM:C01375",
      "wheelchair": 2
    },
    "IDFM:21952": {
      "stop_name": "Jaurès",
      "stop_lat": "48.883024",
      "stop_lon": "2.371439",
      "zone_id": "1",
      "location_type": 0,
      "parent_station": "IDFM:71940",
      "line": "IDFM:C01375",
      "wheelchair": 2
    },
    "IDFM:22012": {
      "stop_name": "Laumière",
      "stop_lat": "48.885134",
      "stop_lon": "2.379391",
      "zone_id": "1",
      "location_type": 0,
      "parent_station": "IDFM:71957",
      "line": "IDFM:C01375",
      "wheelchair": 2
    },
    "IDFM:463027": {
      "stop_name": "Ourcq",
      "stop_lat": "48.886916",
      "stop_lon": "2.386652",
      "zone_id": "1",
      "location_type": 0,
      "parent_station": "IDFM:71972",
      "line": "IDFM:C01375",
      "wheelchair": 2
    },
    "IDFM:463280": {
      "stop_name": "Porte de Pantin",
      "stop_lat": "48.888459",
      "stop_lon": "2.392123",
      "zone_id": "1",
      "location_type": 0,
      "parent_station": "IDFM:71989",
      "line": "IDFM:C01375",
      "wheelchair": 2
    },
    "IDFM:22017": {
      "stop_name": "Hoche",
      "stop_lat": "48.891289",
      "stop_lon": "2.403212",
      "zone_id": "2",
      "location_type": 0,
      "parent_station": "IDFM:72004",
      "line": "IDFM:C01375",
      "wheelchair": 2
    },
    "IDFM:22016": {
      "stop_name": "Église de Pantin",
      "stop_lat": "48.893164",
      "stop_lon": "2.413120",
      "zone_id": "2",
      "location_type": 0,
      "parent_station": "IDFM:72024",
      "line": "IDFM:C01375",
      "wheelchair": 2
    },
    "IDFM:22014": {
      "stop_name": "Bobigny-Pantin - Raymond Queneau",
      "stop_lat": "48.895602",
      "stop_lon": "2.426309",
      "zone_id": "2",
      "location_type": 0,
      "parent_station": "IDFM:72039",
      "line": "IDFM:C01375",
      "wheelchair": 2
    },
    "IDFM:463131": {
      "stop_name": "Bobigny Pablo Picasso",
      "stop_lat": "48.906367",
      "stop_lon": "2.449301",
      "zone_id": "2",
      "location_type": 0,
      "parent_station": "IDFM:72486",
      "line": "IDFM:C01375",
      "wheelchair": 2
    },
    "IDFM:22015": {
      "stop_name": "Bobigny Pablo Picasso",
      "stop_lat": "48.906366",
      "stop_lon": "2.449027",
      "zone_id": "2",
      "location_type": 0,
      "parent_station": "IDFM:72486",
      "line": "IDFM:C01375",
      "wheelchair": 2
    },